{
"type": "FeatureCollection",
"crs": { "type": "name", "properties": { "name": "urn:ogc:def:crs:EPSG::102645" } },
                                                                                
"features": [
{ "type": "Feature", "properties": { "stop_id": 3, "stop_code": null, "stop_name": "Mission Blvd and Temple Ave E", "stop_desc": null, "stop_lat": 34.040202, "stop_lon": -117.798027, "zone_id": null, "stop_url": null, "location_t": 0, "parent_sta": "place_TeDB1" }, "geometry": { "type": "Point", "coordinates": [ 6622855.512194516137242, 1837073.932087887311354 ] } },
{ "type": "Feature", "properties": { "stop_id": 6, "stop_code": null, "stop_name": "Hacienda Blvd and Temple Ave S", "stop_desc": null, "stop_lat": 34.030258, "stop_lon": -117.954118, "zone_id": null, "stop_url": null, "location_t": 0, "parent_sta": null }, "geometry": { "type": "Point", "coordinates": [ 6575568.534892356954515, 1833396.811635722639039 ] } },
{ "type": "Feature", "properties": { "stop_id": 7, "stop_code": null, "stop_name": "Hacienda Blvd and Temple Ave N", "stop_desc": null, "stop_lat": 34.030306, "stop_lon": -117.953758, "zone_id": null, "stop_url": null, "location_t": 0, "parent_sta": null }, "geometry": { "type": "Point", "coordinates": [ 6575677.603884501382709, 1833414.329773685196415 ] } },
{ "type": "Feature", "properties": { "stop_id": 8, "stop_code": null, "stop_name": "10 Frwy and Via Verde W", "stop_desc": null, "stop_lat": 34.069106, "stop_lon": -117.838894, "zone_id": null, "stop_url": null, "location_t": 0, "parent_sta": null }, "geometry": { "type": "Point", "coordinates": [ 6610457.779659795574844, 1847570.28568653576076 ] } },
{ "type": "Feature", "properties": { "stop_id": 9, "stop_code": null, "stop_name": "Flower St and 3rd St W", "stop_desc": null, "stop_lat": 34.054300, "stop_lon": -118.253600, "zone_id": null, "stop_url": null, "location_t": 0, "parent_sta": null }, "geometry": { "type": "Point", "coordinates": [ 6484850.107820428907871, 1842239.898133106529713 ] } },
{ "type": "Feature", "properties": { "stop_id": 10, "stop_code": null, "stop_name": "Hacienda Blvd and Nelson Ave S", "stop_desc": null, "stop_lat": 34.026068, "stop_lon": -117.957811, "zone_id": null, "stop_url": null, "location_t": 0, "parent_sta": null }, "geometry": { "type": "Point", "coordinates": [ 6574450.226368240080774, 1831871.497020673938096 ] } },
{ "type": "Feature", "properties": { "stop_id": 11, "stop_code": null, "stop_name": "Commerce Dr and Rivergrade Rd N", "stop_desc": null, "stop_lat": 34.102012, "stop_lon": -117.978816, "zone_id": null, "stop_url": null, "location_t": 0, "parent_sta": null }, "geometry": { "type": "Point", "coordinates": [ 6568079.741156287491322, 1859506.978467959677801 ] } },
{ "type": "Feature", "properties": { "stop_id": 12, "stop_code": null, "stop_name": "Hacienda Blvd and Nelson Ave N", "stop_desc": null, "stop_lat": 34.026214, "stop_lon": -117.957569, "zone_id": null, "stop_url": null, "location_t": 0, "parent_sta": null }, "geometry": { "type": "Point", "coordinates": [ 6574523.531614206731319, 1831924.660198561148718 ] } },
{ "type": "Feature", "properties": { "stop_id": 21, "stop_code": null, "stop_name": "1st St and Hope St W", "stop_desc": null, "stop_lat": 34.056365, "stop_lon": -118.249999, "zone_id": null, "stop_url": null, "location_t": 0, "parent_sta": null }, "geometry": { "type": "Point", "coordinates": [ 6485942.733407273888588, 1842988.657034713309258 ] } },
{ "type": "Feature", "properties": { "stop_id": 23, "stop_code": null, "stop_name": "Orange Grove Ave. and Glen Ave. N", "stop_desc": null, "stop_lat": 34.064131, "stop_lon": -117.781031, "zone_id": null, "stop_url": null, "location_t": 0, "parent_sta": null }, "geometry": { "type": "Point", "coordinates": [ 6627985.566982115618885, 1845792.922418731497601 ] } },
{ "type": "Feature", "properties": { "stop_id": 25, "stop_code": null, "stop_name": "Lake Ave and Walnut St (Both Directions)", "stop_desc": null, "stop_lat": 34.148093, "stop_lon": -118.132437, "zone_id": null, "stop_url": null, "location_t": 0, "parent_sta": null }, "geometry": { "type": "Point", "coordinates": [ 6521595.856455257162452, 1876302.429671490099281 ] } },
{ "type": "Feature", "properties": { "stop_id": 26, "stop_code": null, "stop_name": "Diamond Bar Blvd and Temple Ave N", "stop_desc": null, "stop_lat": 34.040701, "stop_lon": -117.797831, "zone_id": null, "stop_url": null, "location_t": 0, "parent_sta": "place_TeDB1" }, "geometry": { "type": "Point", "coordinates": [ 6622914.526163587346673, 1837255.647022596327588 ] } },
{ "type": "Feature", "properties": { "stop_id": 30, "stop_code": null, "stop_name": "Flower St and 4th St W", "stop_desc": null, "stop_lat": 34.053216, "stop_lon": -118.254598, "zone_id": null, "stop_url": null, "location_t": 0, "parent_sta": null }, "geometry": { "type": "Point", "coordinates": [ 6484546.810667322948575, 1841846.174891758011654 ] } },
{ "type": "Feature", "properties": { "stop_id": 31, "stop_code": null, "stop_name": "Diamond Bar Blvd and Mountain Laurel Way N", "stop_desc": null, "stop_lat": 33.992105, "stop_lon": -117.816991, "zone_id": null, "stop_url": null, "location_t": 0, "parent_sta": null }, "geometry": { "type": "Point", "coordinates": [ 6617142.137632796540856, 1819559.488997472682968 ] } },
{ "type": "Feature", "properties": { "stop_id": 35, "stop_code": null, "stop_name": "Green St and Raymond Ave E", "stop_desc": null, "stop_lat": 34.144444, "stop_lon": -118.148989, "zone_id": null, "stop_url": null, "location_t": 0, "parent_sta": null }, "geometry": { "type": "Point", "coordinates": [ 6516585.834567670710385, 1874981.503898030612618 ] } },
{ "type": "Feature", "properties": { "stop_id": 36, "stop_code": null, "stop_name": "Brea Canyon Rd and Lycoming St N", "stop_desc": null, "stop_lat": 34.003134, "stop_lon": -117.846354, "zone_id": null, "stop_url": null, "location_t": 0, "parent_sta": null }, "geometry": { "type": "Point", "coordinates": [ 6608235.211461425758898, 1823558.259223717032 ] } },
{ "type": "Feature", "properties": { "stop_id": 37, "stop_code": null, "stop_name": "Brea Canyon Rd and Lycoming St S", "stop_desc": null, "stop_lat": 34.002974, "stop_lon": -117.846462, "zone_id": null, "stop_url": null, "location_t": 0, "parent_sta": null }, "geometry": { "type": "Point", "coordinates": [ 6608202.566723199561238, 1823499.981996942777187 ] } },
{ "type": "Feature", "properties": { "stop_id": 38, "stop_code": null, "stop_name": "Valley Blvd and Durfee Ave E", "stop_desc": null, "stop_lat": 34.059603, "stop_lon": -118.013086, "zone_id": null, "stop_url": null, "location_t": 0, "parent_sta": null }, "geometry": { "type": "Point", "coordinates": [ 6557703.106582806445658, 1844073.11810195678845 ] } },
{ "type": "Feature", "properties": { "stop_id": 39, "stop_code": null, "stop_name": "Valley Blvd and Durfee Ave W", "stop_desc": null, "stop_lat": 34.059737, "stop_lon": -118.013070, "zone_id": null, "stop_url": null, "location_t": 0, "parent_sta": null }, "geometry": { "type": "Point", "coordinates": [ 6557707.95909214951098, 1844121.882665249286219 ] } },
{ "type": "Feature", "properties": { "stop_id": 43, "stop_code": null, "stop_name": "Diamond Bar Blvd and Temple Ave S", "stop_desc": null, "stop_lat": 34.040455, "stop_lon": -117.798403, "zone_id": null, "stop_url": null, "location_t": 0, "parent_sta": "place_TeDB1" }, "geometry": { "type": "Point", "coordinates": [ 6622741.416393441148102, 1837165.774913460249081 ] } },
{ "type": "Feature", "properties": { "stop_id": 44, "stop_code": null, "stop_name": "7th Ave and Gale Ave N", "stop_desc": null, "stop_lat": 34.020221, "stop_lon": -117.987604, "zone_id": null, "stop_url": null, "location_t": 0, "parent_sta": null }, "geometry": { "type": "Point", "coordinates": [ 6565423.003180134110153, 1829741.205390005838126 ] } },
{ "type": "Feature", "properties": { "stop_id": 45, "stop_code": null, "stop_name": "Mission Blvd and Reservoir St W", "stop_desc": null, "stop_lat": 34.055574, "stop_lon": -117.733043, "zone_id": null, "stop_url": null, "location_t": 0, "parent_sta": null }, "geometry": { "type": "Point", "coordinates": [ 6642527.87913088966161, 1842714.006313102087006 ] } },
{ "type": "Feature", "properties": { "stop_id": 47, "stop_code": null, "stop_name": "Amar Rd and Lark Ellen Ave E", "stop_desc": null, "stop_lat": 34.035001, "stop_lon": -117.919315, "zone_id": null, "stop_url": null, "location_t": 0, "parent_sta": null }, "geometry": { "type": "Point", "coordinates": [ 6586112.170041421428323, 1835129.521881252527237 ] } },
{ "type": "Feature", "properties": { "stop_id": 48, "stop_code": null, "stop_name": "Amar Rd and Lark Ellen Ave W", "stop_desc": null, "stop_lat": 34.035342, "stop_lon": -117.919966, "zone_id": null, "stop_url": null, "location_t": 0, "parent_sta": null }, "geometry": { "type": "Point", "coordinates": [ 6585914.834827786311507, 1835253.460810880176723 ] } },
{ "type": "Feature", "properties": { "stop_id": 49, "stop_code": null, "stop_name": "Amar Rd and Lemon Ave E", "stop_desc": null, "stop_lat": 34.035329, "stop_lon": -117.874485, "zone_id": null, "stop_url": null, "location_t": 0, "parent_sta": null }, "geometry": { "type": "Point", "coordinates": [ 6599694.365272279828787, 1835262.81888555875048 ] } },
{ "type": "Feature", "properties": { "stop_id": 50, "stop_code": null, "stop_name": "Amar Rd and Lemon Ave W", "stop_desc": null, "stop_lat": 34.035514, "stop_lon": -117.874693, "zone_id": null, "stop_url": null, "location_t": 0, "parent_sta": null }, "geometry": { "type": "Point", "coordinates": [ 6599631.262921148911119, 1835330.065369873074815 ] } },
{ "type": "Feature", "properties": { "stop_id": 52, "stop_code": null, "stop_name": "Amar Rd and Nogales St W", "stop_desc": null, "stop_lat": 34.027634, "stop_lon": -117.896090, "zone_id": null, "stop_url": null, "location_t": 0, "parent_sta": null }, "geometry": { "type": "Point", "coordinates": [ 6593151.523759920150042, 1832454.986778296763077 ] } },
{ "type": "Feature", "properties": { "stop_id": 53, "stop_code": null, "stop_name": "Workman Mill Rd and Crossroads Pkwy N", "stop_desc": null, "stop_lat": 34.028683, "stop_lon": -118.026118, "zone_id": null, "stop_url": null, "location_t": 0, "parent_sta": null }, "geometry": { "type": "Point", "coordinates": [ 6553752.978594394400716, 1832821.493076783837751 ] } },
{ "type": "Feature", "properties": { "stop_id": 57, "stop_code": null, "stop_name": "Crossroads Pkwy and Workman Mill Rd S", "stop_desc": null, "stop_lat": 34.032045, "stop_lon": -118.020578, "zone_id": null, "stop_url": null, "location_t": 0, "parent_sta": null }, "geometry": { "type": "Point", "coordinates": [ 6555431.835060636512935, 1834044.601834988920018 ] } },
{ "type": "Feature", "properties": { "stop_id": 63, "stop_code": null, "stop_name": "Arrow Hwy and Strawberry Lane W", "stop_desc": null, "stop_lat": 34.106806, "stop_lon": -117.841237, "zone_id": null, "stop_url": null, "location_t": 0, "parent_sta": null }, "geometry": { "type": "Point", "coordinates": [ 6609726.530489057302475, 1861288.883548454847187 ] } },
{ "type": "Feature", "properties": { "stop_id": 65, "stop_code": null, "stop_name": "Arrow Hwy and Sunflower Ave E", "stop_desc": null, "stop_lat": 34.106580, "stop_lon": -117.846499, "zone_id": null, "stop_url": null, "location_t": 0, "parent_sta": null }, "geometry": { "type": "Point", "coordinates": [ 6608133.773593247868121, 1861204.163804364157841 ] } },
{ "type": "Feature", "properties": { "stop_id": 67, "stop_code": null, "stop_name": "Arrow Hwy and Sunflower Ave W", "stop_desc": null, "stop_lat": 34.106793, "stop_lon": -117.846143, "zone_id": null, "stop_url": null, "location_t": 0, "parent_sta": null }, "geometry": { "type": "Point", "coordinates": [ 6608241.421520587056875, 1861281.843159475363791 ] } },
{ "type": "Feature", "properties": { "stop_id": 75, "stop_code": null, "stop_name": "Badillo St and Reeder Ave S", "stop_desc": null, "stop_lat": 34.089174, "stop_lon": -117.853988, "zone_id": null, "stop_url": null, "location_t": 0, "parent_sta": null }, "geometry": { "type": "Point", "coordinates": [ 6605875.941454902291298, 1854866.422191542806104 ] } },
{ "type": "Feature", "properties": { "stop_id": 77, "stop_code": null, "stop_name": "Sunflower Ave and Cypress St N", "stop_desc": null, "stop_lat": 34.096081, "stop_lon": -117.846318, "zone_id": null, "stop_url": null, "location_t": 0, "parent_sta": null }, "geometry": { "type": "Point", "coordinates": [ 6608194.406689611263573, 1857383.468913173535839 ] } },
{ "type": "Feature", "properties": { "stop_id": 79, "stop_code": null, "stop_name": "Rivergrade Rd and Arrow Hwy N", "stop_desc": null, "stop_lat": 34.109642, "stop_lon": -117.967004, "zone_id": null, "stop_url": null, "location_t": 0, "parent_sta": null }, "geometry": { "type": "Point", "coordinates": [ 6571654.699835080653429, 1862284.641785328742117 ] } },
{ "type": "Feature", "properties": { "stop_id": 89, "stop_code": null, "stop_name": "Amar Rd and Sunkist Ave E", "stop_desc": null, "stop_lat": 34.050584, "stop_lon": -117.970413, "zone_id": null, "stop_url": null, "location_t": 0, "parent_sta": null }, "geometry": { "type": "Point", "coordinates": [ 6570629.106933651492, 1840791.989732387941331 ] } },
{ "type": "Feature", "properties": { "stop_id": 91, "stop_code": null, "stop_name": "Lone Hill Ave and Covina Blvd N", "stop_desc": null, "stop_lat": 34.099853, "stop_lon": -117.828834, "zone_id": null, "stop_url": null, "location_t": 0, "parent_sta": null }, "geometry": { "type": "Point", "coordinates": [ 6613485.403853544034064, 1858764.722094029886648 ] } },
{ "type": "Feature", "properties": { "stop_id": 93, "stop_code": null, "stop_name": "Arrow Hwy and Monte Vista Ave W", "stop_desc": null, "stop_lat": 34.092494, "stop_lon": -117.698751, "zone_id": null, "stop_url": null, "location_t": 0, "parent_sta": null }, "geometry": { "type": "Point", "coordinates": [ 6652874.621200050227344, 1856179.198709109099582 ] } },
{ "type": "Feature", "properties": { "stop_id": 97, "stop_code": null, "stop_name": "Arrow Hwy and Mountain Ave E", "stop_desc": null, "stop_lat": 34.090285, "stop_lon": -117.728126, "zone_id": null, "stop_url": null, "location_t": 0, "parent_sta": null }, "geometry": { "type": "Point", "coordinates": [ 6643983.067175856791437, 1855349.949796701548621 ] } },
{ "type": "Feature", "properties": { "stop_id": 99, "stop_code": null, "stop_name": "Arrow Hwy and Orange Grove Ave E", "stop_desc": null, "stop_lat": 34.089935, "stop_lon": -117.742730, "zone_id": null, "stop_url": null, "location_t": 0, "parent_sta": null }, "geometry": { "type": "Point", "coordinates": [ 6639561.690429541282356, 1855210.94013238651678 ] } },
{ "type": "Feature", "properties": { "stop_id": 101, "stop_code": null, "stop_name": "Arrow Hwy and Rennell Ave W", "stop_desc": null, "stop_lat": 34.106773, "stop_lon": -117.833415, "zone_id": null, "stop_url": null, "location_t": 0, "parent_sta": null }, "geometry": { "type": "Point", "coordinates": [ 6612094.381175705231726, 1861280.706291827838868 ] } },
{ "type": "Feature", "properties": { "stop_id": 103, "stop_code": null, "stop_name": "Arrow Hwy. and Royal Palm MH E", "stop_desc": null, "stop_lat": 34.106590, "stop_lon": -117.841209, "zone_id": null, "stop_url": null, "location_t": 0, "parent_sta": null }, "geometry": { "type": "Point", "coordinates": [ 6609735.130666422657669, 1861210.290596519131213 ] } },
{ "type": "Feature", "properties": { "stop_id": 105, "stop_code": null, "stop_name": "Crossroads Pkwy N and Crossroads Pkwy S SB", "stop_desc": null, "stop_lat": 34.030454, "stop_lon": -118.012954, "zone_id": null, "stop_url": null, "location_t": 0, "parent_sta": null }, "geometry": { "type": "Point", "coordinates": [ 6557741.720391741022468, 1833465.220016979146749 ] } },
{ "type": "Feature", "properties": { "stop_id": 106, "stop_code": null, "stop_name": "Crossroads Pkwy N and Crossroads Pkwy S NB", "stop_desc": null, "stop_lat": 34.030431, "stop_lon": -118.013297, "zone_id": null, "stop_url": null, "location_t": 0, "parent_sta": null }, "geometry": { "type": "Point", "coordinates": [ 6557637.793349282816052, 1833456.863430160097778 ] } },
{ "type": "Feature", "properties": { "stop_id": 107, "stop_code": null, "stop_name": "Temple Ave and Puente Ave (Detour 2015 - 2018)", "stop_desc": null, "stop_lat": 34.049622, "stop_lon": -117.980425, "zone_id": null, "stop_url": null, "location_t": 0, "parent_sta": null }, "geometry": { "type": "Point", "coordinates": [ 6567596.358316030353308, 1840441.157492831582204 ] } },
{ "type": "Feature", "properties": { "stop_id": 108, "stop_code": null, "stop_name": "Flower St and 11th St W (Staples Center)", "stop_desc": null, "stop_lat": 34.043069, "stop_lon": -118.264132, "zone_id": null, "stop_url": null, "location_t": 0, "parent_sta": null }, "geometry": { "type": "Point", "coordinates": [ 6481649.185718019492924, 1838160.947629477130249 ] } },
{ "type": "Feature", "properties": { "stop_id": 109, "stop_code": null, "stop_name": "Figueroa St and 12 St E (Staples Center)", "stop_desc": null, "stop_lat": 34.042127, "stop_lon": -118.266553, "zone_id": null, "stop_url": null, "location_t": 0, "parent_sta": null }, "geometry": { "type": "Point", "coordinates": [ 6480914.848395292647183, 1837820.072609951719642 ] } },
{ "type": "Feature", "properties": { "stop_id": 110, "stop_code": null, "stop_name": "Valley Blvd and Garvey Ave E", "stop_desc": null, "stop_lat": 34.062608, "stop_lon": -118.019137, "zone_id": null, "stop_url": null, "location_t": 0, "parent_sta": null }, "geometry": { "type": "Point", "coordinates": [ 6555870.554443640634418, 1845166.989454191178083 ] } },
{ "type": "Feature", "properties": { "stop_id": 4218, "stop_code": null, "stop_name": "Nogales St and Daisetta St W", "stop_desc": null, "stop_lat": 33.990316, "stop_lon": -117.888989, "zone_id": null, "stop_url": null, "location_t": 0, "parent_sta": null }, "geometry": { "type": "Point", "coordinates": [ 6595318.133239729329944, 1818876.515571909258142 ] } },
{ "type": "Feature", "properties": { "stop_id": 6103, "stop_code": null, "stop_name": "Citrus College Foothill Blvd and Barranca Ave WB", "stop_desc": null, "stop_lat": 34.135911, "stop_lon": -117.881414, "zone_id": null, "stop_url": null, "location_t": 0, "parent_sta": null }, "geometry": { "type": "Point", "coordinates": [ 6597551.880334090441465, 1871863.946341529255733 ] } },
{ "type": "Feature", "properties": { "stop_id": 6104, "stop_code": null, "stop_name": "Garey Ave and Drake St N", "stop_desc": null, "stop_lat": 34.105571, "stop_lon": -117.748484, "zone_id": null, "stop_url": null, "location_t": 0, "parent_sta": null }, "geometry": { "type": "Point", "coordinates": [ 6637805.286281507462263, 1860896.747602577088401 ] } },
{ "type": "Feature", "properties": { "stop_id": 6105, "stop_code": null, "stop_name": "Garey Ave and Drake St S", "stop_desc": null, "stop_lat": 34.105368, "stop_lon": -117.748737, "zone_id": null, "stop_url": null, "location_t": 0, "parent_sta": null }, "geometry": { "type": "Point", "coordinates": [ 6637728.883254027925432, 1860822.68079091492109 ] } },
{ "type": "Feature", "properties": { "stop_id": 2000285, "stop_code": null, "stop_name": "Lake Metro Goldline Station", "stop_desc": null, "stop_lat": 34.151893, "stop_lon": -118.132534, "zone_id": null, "stop_url": null, "location_t": 0, "parent_sta": null }, "geometry": { "type": "Point", "coordinates": [ 6521568.331035306677222, 1877685.356709210667759 ] } },
{ "type": "Feature", "properties": { "stop_id": 10000002, "stop_code": null, "stop_name": "10 Fwy and Azusa Ave E", "stop_desc": null, "stop_lat": 34.072034, "stop_lon": -117.908195, "zone_id": null, "stop_url": null, "location_t": 0, "parent_sta": null }, "geometry": { "type": "Point", "coordinates": [ 6589468.937435519881546, 1848609.436745340004563 ] } },
{ "type": "Feature", "properties": { "stop_id": 10000004, "stop_code": null, "stop_name": "10 Fwy and Azusa Ave W", "stop_desc": null, "stop_lat": 34.072305, "stop_lon": -117.906937, "zone_id": null, "stop_url": null, "location_t": 0, "parent_sta": null }, "geometry": { "type": "Point", "coordinates": [ 6589849.819349360652268, 1848708.409133770968765 ] } },
{ "type": "Feature", "properties": { "stop_id": 10000014, "stop_code": null, "stop_name": "10 Fwy and Puente Ave W", "stop_desc": null, "stop_lat": 34.070727, "stop_lon": -117.959576, "zone_id": null, "stop_url": null, "location_t": 0, "parent_sta": null }, "geometry": { "type": "Point", "coordinates": [ 6573908.883108509704471, 1848123.559739801101387 ] } },
{ "type": "Feature", "properties": { "stop_id": 10000016, "stop_code": null, "stop_name": "10 Frwy and Via Verde E", "stop_desc": null, "stop_lat": 34.068310, "stop_lon": -117.839159, "zone_id": null, "stop_url": null, "location_t": 0, "parent_sta": null }, "geometry": { "type": "Point", "coordinates": [ 6610377.987741639837623, 1847280.477837359765545 ] } },
{ "type": "Feature", "properties": { "stop_id": 10000020, "stop_code": null, "stop_name": "1st St and Azusa Ave E", "stop_desc": null, "stop_lat": 34.121514, "stop_lon": -117.906895, "zone_id": null, "stop_url": null, "location_t": 0, "parent_sta": null }, "geometry": { "type": "Point", "coordinates": [ 6589845.951014831662178, 1866616.494778021238744 ] } },
{ "type": "Feature", "properties": { "stop_id": 10000022, "stop_code": null, "stop_name": "1st St and Azusa\/Alameda W", "stop_desc": null, "stop_lat": 34.121696, "stop_lon": -117.906151, "zone_id": null, "stop_url": null, "location_t": 0, "parent_sta": null }, "geometry": { "type": "Point", "coordinates": [ 6590071.069149353541434, 1866682.937332563567907 ] } },
{ "type": "Feature", "properties": { "stop_id": 10000029, "stop_code": null, "stop_name": "1st St and Hill St W", "stop_desc": null, "stop_lat": 34.054491, "stop_lon": -118.246739, "zone_id": null, "stop_url": null, "location_t": 0, "parent_sta": null }, "geometry": { "type": "Point", "coordinates": [ 6486928.501380844041705, 1842304.234179305145517 ] } },
{ "type": "Feature", "properties": { "stop_id": 10000046, "stop_code": null, "stop_name": "1st St and Grand Ave E", "stop_desc": null, "stop_lat": 34.055351, "stop_lon": -118.248473, "zone_id": null, "stop_url": null, "location_t": 0, "parent_sta": null }, "geometry": { "type": "Point", "coordinates": [ 6486404.041014738380909, 1842618.497768660541624 ] } },
{ "type": "Feature", "properties": { "stop_id": 10000051, "stop_code": null, "stop_name": "1st St and Harvard Ave E", "stop_desc": null, "stop_lat": 34.094498, "stop_lon": -117.716863, "zone_id": null, "stop_url": null, "location_t": 0, "parent_sta": null }, "geometry": { "type": "Point", "coordinates": [ 6647388.884107440710068, 1856892.548610416706651 ] } },
{ "type": "Feature", "properties": { "stop_id": 10000055, "stop_code": null, "stop_name": "1st St and Harvard Ave W", "stop_desc": null, "stop_lat": 34.094738, "stop_lon": -117.717103, "zone_id": null, "stop_url": null, "location_t": 0, "parent_sta": null }, "geometry": { "type": "Point", "coordinates": [ 6647315.976375149562955, 1856979.684198454488069 ] } },
{ "type": "Feature", "properties": { "stop_id": 10000061, "stop_code": null, "stop_name": "1st St and Hill E", "stop_desc": null, "stop_lat": 34.054325, "stop_lon": -118.246715, "zone_id": null, "stop_url": null, "location_t": 0, "parent_sta": null }, "geometry": { "type": "Point", "coordinates": [ 6486935.622780326753855, 1842243.805888643255457 ] } },
{ "type": "Feature", "properties": { "stop_id": 10000074, "stop_code": null, "stop_name": "1st St and Mills Ave E", "stop_desc": null, "stop_lat": 34.094937, "stop_lon": -117.707412, "zone_id": null, "stop_url": null, "location_t": 0, "parent_sta": null }, "geometry": { "type": "Point", "coordinates": [ 6650249.784509126096964, 1857060.50277633452788 ] } },
{ "type": "Feature", "properties": { "stop_id": 10000081, "stop_code": null, "stop_name": "1st St and Mills Ave W", "stop_desc": null, "stop_lat": 34.095041, "stop_lon": -117.707299, "zone_id": null, "stop_url": null, "location_t": 0, "parent_sta": null }, "geometry": { "type": "Point", "coordinates": [ 6650283.885763360187411, 1857098.449778718175367 ] } },
{ "type": "Feature", "properties": { "stop_id": 10000092, "stop_code": null, "stop_name": "2nd St and Badillo St S", "stop_desc": null, "stop_lat": 34.085960, "stop_lon": -117.887991, "zone_id": null, "stop_url": null, "location_t": 0, "parent_sta": null }, "geometry": { "type": "Point", "coordinates": [ 6595581.87694201245904, 1853683.573629361577332 ] } },
{ "type": "Feature", "properties": { "stop_id": 10000094, "stop_code": null, "stop_name": "2nd St and College St N", "stop_desc": null, "stop_lat": 34.087685, "stop_lon": -117.887817, "zone_id": null, "stop_url": null, "location_t": 0, "parent_sta": null }, "geometry": { "type": "Point", "coordinates": [ 6595633.861769011244178, 1854311.39217832731083 ] } },
{ "type": "Feature", "properties": { "stop_id": 10000096, "stop_code": null, "stop_name": "2nd St and College St S", "stop_desc": null, "stop_lat": 34.087177, "stop_lon": -117.888032, "zone_id": null, "stop_url": null, "location_t": 0, "parent_sta": null }, "geometry": { "type": "Point", "coordinates": [ 6595568.96921066660434, 1854126.448887301841751 ] } },
{ "type": "Feature", "properties": { "stop_id": 10000098, "stop_code": null, "stop_name": "2nd St and Puente St N", "stop_desc": null, "stop_lat": 34.083127, "stop_lon": -117.887760, "zone_id": null, "stop_url": null, "location_t": 0, "parent_sta": null }, "geometry": { "type": "Point", "coordinates": [ 6595652.972638420760632, 1852652.669824977871031 ] } },
{ "type": "Feature", "properties": { "stop_id": 10000100, "stop_code": null, "stop_name": "2nd St and Puente St S", "stop_desc": null, "stop_lat": 34.082770, "stop_lon": -117.887982, "zone_id": null, "stop_url": null, "location_t": 0, "parent_sta": null }, "geometry": { "type": "Point", "coordinates": [ 6595585.895783542655408, 1852522.675834580557421 ] } },
{ "type": "Feature", "properties": { "stop_id": 10000102, "stop_code": null, "stop_name": "2nd St and Rowland Ave S", "stop_desc": null, "stop_lat": 34.079761, "stop_lon": -117.887966, "zone_id": null, "stop_url": null, "location_t": 0, "parent_sta": null }, "geometry": { "type": "Point", "coordinates": [ 6595591.961107634007931, 1851427.649565963074565 ] } },
{ "type": "Feature", "properties": { "stop_id": 10000104, "stop_code": null, "stop_name": "2nd St and San Bernardino Rd S", "stop_desc": null, "stop_lat": 34.089991, "stop_lon": -117.888058, "zone_id": null, "stop_url": null, "location_t": 0, "parent_sta": null }, "geometry": { "type": "Point", "coordinates": [ 6595559.956319574266672, 1855150.507336409529671 ] } },
{ "type": "Feature", "properties": { "stop_id": 10000117, "stop_code": null, "stop_name": "7th St and Bonelli St S", "stop_desc": null, "stop_lat": 34.025542, "stop_lon": -117.984207, "zone_id": null, "stop_url": null, "location_t": 0, "parent_sta": null }, "geometry": { "type": "Point", "coordinates": [ 6566452.085433009080589, 1831677.768281725933775 ] } },
{ "type": "Feature", "properties": { "stop_id": 10000121, "stop_code": null, "stop_name": "7th St and Clark Ave N", "stop_desc": null, "stop_lat": 34.023052, "stop_lon": -117.985891, "zone_id": null, "stop_url": null, "location_t": 0, "parent_sta": null }, "geometry": { "type": "Point", "coordinates": [ 6565941.945726228877902, 1830771.531546728685498 ] } },
{ "type": "Feature", "properties": { "stop_id": 10000123, "stop_code": null, "stop_name": "7th St and Clark Ave S", "stop_desc": null, "stop_lat": 34.023528, "stop_lon": -117.985881, "zone_id": null, "stop_url": null, "location_t": 0, "parent_sta": null }, "geometry": { "type": "Point", "coordinates": [ 6565944.951572838239372, 1830944.757909201085567 ] } },
{ "type": "Feature", "properties": { "stop_id": 10000129, "stop_code": null, "stop_name": "7th St and Don Julian Rd N", "stop_desc": null, "stop_lat": 34.029256, "stop_lon": -117.980236, "zone_id": null, "stop_url": null, "location_t": 0, "parent_sta": null }, "geometry": { "type": "Point", "coordinates": [ 6567655.067805478349328, 1833029.579789182404056 ] } },
{ "type": "Feature", "properties": { "stop_id": 10000131, "stop_code": null, "stop_name": "7th St and Don Julian Rd S", "stop_desc": null, "stop_lat": 34.029295, "stop_lon": -117.980444, "zone_id": null, "stop_url": null, "location_t": 0, "parent_sta": null }, "geometry": { "type": "Point", "coordinates": [ 6567592.042001226916909, 1833043.760339071042836 ] } },
{ "type": "Feature", "properties": { "stop_id": 10000141, "stop_code": null, "stop_name": "7th St and Proctor Ave N", "stop_desc": null, "stop_lat": 34.031778, "stop_lon": -117.977688, "zone_id": null, "stop_url": null, "location_t": 0, "parent_sta": null }, "geometry": { "type": "Point", "coordinates": [ 6568426.896351609379053, 1833947.547321123071015 ] } },
{ "type": "Feature", "properties": { "stop_id": 10000143, "stop_code": null, "stop_name": "7th St and Proctor Ave S", "stop_desc": null, "stop_lat": 34.032210, "stop_lon": -117.977575, "zone_id": null, "stop_url": null, "location_t": 0, "parent_sta": null }, "geometry": { "type": "Point", "coordinates": [ 6568461.09872586838901, 1834104.768317249370739 ] } },
{ "type": "Feature", "properties": { "stop_id": 10000149, "stop_code": null, "stop_name": "7th St and Salt Lake Ave N", "stop_desc": null, "stop_lat": 34.024838, "stop_lon": -117.984561, "zone_id": null, "stop_url": null, "location_t": 0, "parent_sta": null }, "geometry": { "type": "Point", "coordinates": [ 6566344.859652296639979, 1831421.551940209232271 ] } },
{ "type": "Feature", "properties": { "stop_id": 10000153, "stop_code": null, "stop_name": "7th St and Valley Blvd N", "stop_desc": null, "stop_lat": 34.034377, "stop_lon": -117.974928, "zone_id": null, "stop_url": null, "location_t": 0, "parent_sta": null }, "geometry": { "type": "Point", "coordinates": [ 6569262.902525318786502, 1834893.572065370855853 ] } },
{ "type": "Feature", "properties": { "stop_id": 10000155, "stop_code": null, "stop_name": "7th St and Valley Blvd S", "stop_desc": null, "stop_lat": 34.034564, "stop_lon": -117.975066, "zone_id": null, "stop_url": null, "location_t": 0, "parent_sta": null }, "geometry": { "type": "Point", "coordinates": [ 6569221.07483827508986, 1834961.614668466849253 ] } },
{ "type": "Feature", "properties": { "stop_id": 10000169, "stop_code": null, "stop_name": "Aliso St and Los Angeles St E", "stop_desc": null, "stop_lat": 34.054883, "stop_lon": -118.239690, "zone_id": null, "stop_url": null, "location_t": 0, "parent_sta": null }, "geometry": { "type": "Point", "coordinates": [ 6489064.005894724279642, 1842441.723856842145324 ] } },
{ "type": "Feature", "properties": { "stop_id": 10000177, "stop_code": null, "stop_name": "Amar Rd and Amber Valley Dr E", "stop_desc": null, "stop_lat": 34.030067, "stop_lon": -117.888884, "zone_id": null, "stop_url": null, "location_t": 0, "parent_sta": null }, "geometry": { "type": "Point", "coordinates": [ 6595333.970931611023843, 1833342.738815307617188 ] } },
{ "type": "Feature", "properties": { "stop_id": 10000179, "stop_code": null, "stop_name": "Amar Rd and Amber Valley Dr W", "stop_desc": null, "stop_lat": 34.029861, "stop_lon": -117.889478, "zone_id": null, "stop_url": null, "location_t": 0, "parent_sta": null }, "geometry": { "type": "Point", "coordinates": [ 6595154.075944306328893, 1833267.572936681797728 ] } },
{ "type": "Feature", "properties": { "stop_id": 10000186, "stop_code": null, "stop_name": "Amar Rd and Azusa Ave E", "stop_desc": null, "stop_lat": 34.030535, "stop_lon": -117.913323, "zone_id": null, "stop_url": null, "location_t": 0, "parent_sta": null }, "geometry": { "type": "Point", "coordinates": [ 6587928.994733461178839, 1833505.76779665844515 ] } },
{ "type": "Feature", "properties": { "stop_id": 10000188, "stop_code": null, "stop_name": "Amar Rd and Azusa Ave W", "stop_desc": null, "stop_lat": 34.031825, "stop_lon": -117.915183, "zone_id": null, "stop_url": null, "location_t": 0, "parent_sta": null }, "geometry": { "type": "Point", "coordinates": [ 6587365.035967078059912, 1833974.743520592339337 ] } },
{ "type": "Feature", "properties": { "stop_id": 10000196, "stop_code": null, "stop_name": "Amar Rd and Braes River Dr E", "stop_desc": null, "stop_lat": 34.034660, "stop_lon": -117.879042, "zone_id": null, "stop_url": null, "location_t": 0, "parent_sta": null }, "geometry": { "type": "Point", "coordinates": [ 6598314.009419853799045, 1835017.663996478309855 ] } },
{ "type": "Feature", "properties": { "stop_id": 10000198, "stop_code": null, "stop_name": "Amar Rd and Braes River Dr W", "stop_desc": null, "stop_lat": 34.034798, "stop_lon": -117.879339, "zone_id": null, "stop_url": null, "location_t": 0, "parent_sta": null }, "geometry": { "type": "Point", "coordinates": [ 6598223.965375002473593, 1835067.776744018308818 ] } },
{ "type": "Feature", "properties": { "stop_id": 10000202, "stop_code": null, "stop_name": "Amar Rd and Countryside Dr W", "stop_desc": null, "stop_lat": 34.036672, "stop_lon": -117.869395, "zone_id": null, "stop_url": null, "location_t": 0, "parent_sta": null }, "geometry": { "type": "Point", "coordinates": [ 6601235.863672989420593, 1835753.527448018779978 ] } },
{ "type": "Feature", "properties": { "stop_id": 10000205, "stop_code": null, "stop_name": "Amar Rd and California Ave E", "stop_desc": null, "stop_lat": 34.041877, "stop_lon": -117.958629, "zone_id": null, "stop_url": null, "location_t": 0, "parent_sta": null }, "geometry": { "type": "Point", "coordinates": [ 6574199.998785112053156, 1837624.602036260301247 ] } },
{ "type": "Feature", "properties": { "stop_id": 10000207, "stop_code": null, "stop_name": "Amar Rd and Countryside Dr W", "stop_desc": null, "stop_lat": 34.036477, "stop_lon": -117.869329, "zone_id": null, "stop_url": null, "location_t": 0, "parent_sta": null }, "geometry": { "type": "Point", "coordinates": [ 6601255.951833772473037, 1835682.589139946736395 ] } },
{ "type": "Feature", "properties": { "stop_id": 10000215, "stop_code": null, "stop_name": "Amar Rd and Creekside Dr E", "stop_desc": null, "stop_lat": 34.033003, "stop_lon": -117.885263, "zone_id": null, "stop_url": null, "location_t": 0, "parent_sta": null }, "geometry": { "type": "Point", "coordinates": [ 6596429.886341827921569, 1834412.439451617887244 ] } },
{ "type": "Feature", "properties": { "stop_id": 10000217, "stop_code": null, "stop_name": "Amar Rd and Creekside Dr W", "stop_desc": null, "stop_lat": 34.033097, "stop_lon": -117.885527, "zone_id": null, "stop_url": null, "location_t": 0, "parent_sta": null }, "geometry": { "type": "Point", "coordinates": [ 6596349.860230300575495, 1834446.55669665010646 ] } },
{ "type": "Feature", "properties": { "stop_id": 10000219, "stop_code": null, "stop_name": "Amar Rd and Del Valle Ave E", "stop_desc": null, "stop_lat": 34.036606, "stop_lon": -117.943554, "zone_id": null, "stop_url": null, "location_t": 0, "parent_sta": null }, "geometry": { "type": "Point", "coordinates": [ 6578768.042317534796894, 1835708.603626339230686 ] } },
{ "type": "Feature", "properties": { "stop_id": 10000221, "stop_code": null, "stop_name": "Amar Rd and Del Valle Ave W", "stop_desc": null, "stop_lat": 34.036842, "stop_lon": -117.943580, "zone_id": null, "stop_url": null, "location_t": 0, "parent_sta": null }, "geometry": { "type": "Point", "coordinates": [ 6578760.116922920569777, 1835794.4842563951388 ] } },
{ "type": "Feature", "properties": { "stop_id": 10000223, "stop_code": null, "stop_name": "Amar Rd and Echelon Ave E", "stop_desc": null, "stop_lat": 34.036074, "stop_lon": -117.934277, "zone_id": null, "stop_url": null, "location_t": 0, "parent_sta": null }, "geometry": { "type": "Point", "coordinates": [ 6581578.809889052063227, 1835516.706384235294536 ] } },
{ "type": "Feature", "properties": { "stop_id": 10000225, "stop_code": null, "stop_name": "Amar Rd and Echelon Ave W", "stop_desc": null, "stop_lat": 34.036291, "stop_lon": -117.934900, "zone_id": null, "stop_url": null, "location_t": 0, "parent_sta": null }, "geometry": { "type": "Point", "coordinates": [ 6581390.008024834096432, 1835595.554130438016728 ] } },
{ "type": "Feature", "properties": { "stop_id": 10000233, "stop_code": null, "stop_name": "Amar Rd and Grand Ave W", "stop_desc": null, "stop_lat": 34.042968, "stop_lon": -117.848229, "zone_id": null, "stop_url": null, "location_t": 0, "parent_sta": null }, "geometry": { "type": "Point", "coordinates": [ 6607645.030217848718166, 1838053.770660784095526 ] } },
{ "type": "Feature", "properties": { "stop_id": 10000235, "stop_code": null, "stop_name": "Amar Rd and Greycliff Ave E", "stop_desc": null, "stop_lat": 34.036199, "stop_lon": -117.937445, "zone_id": null, "stop_url": null, "location_t": 0, "parent_sta": null }, "geometry": { "type": "Point", "coordinates": [ 6580618.970533082261682, 1835561.583900191122666 ] } },
{ "type": "Feature", "properties": { "stop_id": 10000237, "stop_code": null, "stop_name": "Amar Rd and Greycliff Ave W", "stop_desc": null, "stop_lat": 34.036491, "stop_lon": -117.938349, "zone_id": null, "stop_url": null, "location_t": 0, "parent_sta": null }, "geometry": { "type": "Point", "coordinates": [ 6580345.020287113264203, 1835667.679239242337644 ] } },
{ "type": "Feature", "properties": { "stop_id": 10000239, "stop_code": null, "stop_name": "Amar Rd and Hacienda Blvd E", "stop_desc": null, "stop_lat": 34.037004, "stop_lon": -117.949551, "zone_id": null, "stop_url": null, "location_t": 0, "parent_sta": null }, "geometry": { "type": "Point", "coordinates": [ 6576951.066021992824972, 1835852.477579784113914 ] } },
{ "type": "Feature", "properties": { "stop_id": 10000241, "stop_code": null, "stop_name": "Amar Rd and Hacienda Blvd W", "stop_desc": null, "stop_lat": 34.037310, "stop_lon": -117.950459, "zone_id": null, "stop_url": null, "location_t": 0, "parent_sta": null }, "geometry": { "type": "Point", "coordinates": [ 6576675.916814467869699, 1835963.700187501031905 ] } },
{ "type": "Feature", "properties": { "stop_id": 10000243, "stop_code": null, "stop_name": "Amar Rd and Heidleburg Ave E", "stop_desc": null, "stop_lat": 34.039645, "stop_lon": -117.854936, "zone_id": null, "stop_url": null, "location_t": 0, "parent_sta": null }, "geometry": { "type": "Point", "coordinates": [ 6605614.920463348738849, 1836841.466682521626353 ] } },
{ "type": "Feature", "properties": { "stop_id": 10000245, "stop_code": null, "stop_name": "Amar Rd and Heidleburg Ave W", "stop_desc": null, "stop_lat": 34.039816, "stop_lon": -117.855088, "zone_id": null, "stop_url": null, "location_t": 0, "parent_sta": null }, "geometry": { "type": "Point", "coordinates": [ 6605568.781211525201797, 1836903.630465910537168 ] } },
{ "type": "Feature", "properties": { "stop_id": 10000247, "stop_code": null, "stop_name": "Amar Rd and Indian Summer Ave E", "stop_desc": null, "stop_lat": 34.035854, "stop_lon": -117.929926, "zone_id": null, "stop_url": null, "location_t": 0, "parent_sta": null }, "geometry": { "type": "Point", "coordinates": [ 6582897.091006058268249, 1835437.534504118608311 ] } },
{ "type": "Feature", "properties": { "stop_id": 10000249, "stop_code": null, "stop_name": "Amar Rd and Indian Summer Ave W", "stop_desc": null, "stop_lat": 34.036071, "stop_lon": -117.929930, "zone_id": null, "stop_url": null, "location_t": 0, "parent_sta": null }, "geometry": { "type": "Point", "coordinates": [ 6582895.824070105329156, 1835516.504233679268509 ] } },
{ "type": "Feature", "properties": { "stop_id": 10000260, "stop_code": null, "stop_name": "Amar Rd and Meadow Pass Dr  E", "stop_desc": null, "stop_lat": 34.037917, "stop_lon": -117.859319, "zone_id": null, "stop_url": null, "location_t": 0, "parent_sta": null }, "geometry": { "type": "Point", "coordinates": [ 6604287.937933273613453, 1836210.726603702642024 ] } },
{ "type": "Feature", "properties": { "stop_id": 10000268, "stop_code": null, "stop_name": "Amar Rd and Nogales Ave E", "stop_desc": null, "stop_lat": 34.027596, "stop_lon": -117.895138, "zone_id": null, "stop_url": null, "location_t": 0, "parent_sta": null }, "geometry": { "type": "Point", "coordinates": [ 6593439.995246909558773, 1832441.457388412207365 ] } },
{ "type": "Feature", "properties": { "stop_id": 10000272, "stop_code": null, "stop_name": "Amar Rd and Orange Ave E", "stop_desc": null, "stop_lat": 34.048549, "stop_lon": -117.967717, "zone_id": null, "stop_url": null, "location_t": 0, "parent_sta": null }, "geometry": { "type": "Point", "coordinates": [ 6571446.012177867814898, 1840051.66485606902279 ] } },
{ "type": "Feature", "properties": { "stop_id": 10000274, "stop_code": null, "stop_name": "Amar Rd and Orange Ave W", "stop_desc": null, "stop_lat": 34.049115, "stop_lon": -117.968080, "zone_id": null, "stop_url": null, "location_t": 0, "parent_sta": null }, "geometry": { "type": "Point", "coordinates": [ 6571335.984796875156462, 1840257.608191367471591 ] } },
{ "type": "Feature", "properties": { "stop_id": 10000276, "stop_code": null, "stop_name": "Amar Rd and Puente Ave E", "stop_desc": null, "stop_lat": 34.054547, "stop_lon": -117.978365, "zone_id": null, "stop_url": null, "location_t": 0, "parent_sta": null }, "geometry": { "type": "Point", "coordinates": [ 6568219.991171611472964, 1842233.588855712208897 ] } },
{ "type": "Feature", "properties": { "stop_id": 10000278, "stop_code": null, "stop_name": "Amar Rd and Puente Ave W", "stop_desc": null, "stop_lat": 34.054437, "stop_lon": -117.977764, "zone_id": null, "stop_url": null, "location_t": 0, "parent_sta": null }, "geometry": { "type": "Point", "coordinates": [ 6568402.045230033807456, 1842193.597444662824273 ] } },
{ "type": "Feature", "properties": { "stop_id": 10000282, "stop_code": null, "stop_name": "Amar Rd and Shadow Oak Dr E", "stop_desc": null, "stop_lat": 34.026234, "stop_lon": -117.902602, "zone_id": null, "stop_url": null, "location_t": 0, "parent_sta": null }, "geometry": { "type": "Point", "coordinates": [ 6591178.874112806282938, 1831943.523229987826198 ] } },
{ "type": "Feature", "properties": { "stop_id": 10000284, "stop_code": null, "stop_name": "Amar Rd and Shadow Oak Dr W", "stop_desc": null, "stop_lat": 34.026482, "stop_lon": -117.903436, "zone_id": null, "stop_url": null, "location_t": 0, "parent_sta": null }, "geometry": { "type": "Point", "coordinates": [ 6590926.080235081724823, 1832033.531524545047432 ] } },
{ "type": "Feature", "properties": { "stop_id": 10000288, "stop_code": null, "stop_name": "Amar Rd and Sunkist Ave W", "stop_desc": null, "stop_lat": 34.050498, "stop_lon": -117.969961, "zone_id": null, "stop_url": null, "location_t": 0, "parent_sta": null }, "geometry": { "type": "Point", "coordinates": [ 6570766.035301110707223, 1840760.733265141490847 ] } },
{ "type": "Feature", "properties": { "stop_id": 10000290, "stop_code": null, "stop_name": "Amar Rd and Sunset Ave E", "stop_desc": null, "stop_lat": 34.044981, "stop_lon": -117.962843, "zone_id": null, "stop_url": null, "location_t": 0, "parent_sta": null }, "geometry": { "type": "Point", "coordinates": [ 6572922.951232788152993, 1838753.709859052440152 ] } },
{ "type": "Feature", "properties": { "stop_id": 10000292, "stop_code": null, "stop_name": "Amar Rd and Sunset Ave W", "stop_desc": null, "stop_lat": 34.045151, "stop_lon": -117.962681, "zone_id": null, "stop_url": null, "location_t": 0, "parent_sta": null }, "geometry": { "type": "Point", "coordinates": [ 6572972.004292777739465, 1838815.594370321137831 ] } },
{ "type": "Feature", "properties": { "stop_id": 10000295, "stop_code": null, "stop_name": "Amar Rd and Temple Ave E", "stop_desc": null, "stop_lat": 34.029211, "stop_lon": -117.910298, "zone_id": null, "stop_url": null, "location_t": 0, "parent_sta": null }, "geometry": { "type": "Point", "coordinates": [ 6588845.971460946835577, 1833024.742175856139511 ] } },
{ "type": "Feature", "properties": { "stop_id": 10000297, "stop_code": null, "stop_name": "Amar Rd and Temple Ave W", "stop_desc": null, "stop_lat": 34.029546, "stop_lon": -117.910347, "zone_id": null, "stop_url": null, "location_t": 0, "parent_sta": null }, "geometry": { "type": "Point", "coordinates": [ 6588831.015947212465107, 1833146.642053263261914 ] } },
{ "type": "Feature", "properties": { "stop_id": 10000299, "stop_code": null, "stop_name": "Amar Rd and Tonopah Ave E", "stop_desc": null, "stop_lat": 34.046828, "stop_lon": -117.965364, "zone_id": null, "stop_url": null, "location_t": 0, "parent_sta": null }, "geometry": { "type": "Point", "coordinates": [ 6572159.01178019400686, 1839425.596585158491507 ] } },
{ "type": "Feature", "properties": { "stop_id": 10000301, "stop_code": null, "stop_name": "Amar Rd and Tonopah Ave W", "stop_desc": null, "stop_lat": 34.047309, "stop_lon": -117.965615, "zone_id": null, "stop_url": null, "location_t": 0, "parent_sta": null }, "geometry": { "type": "Point", "coordinates": [ 6572082.916026661172509, 1839600.615786838810891 ] } },
{ "type": "Feature", "properties": { "stop_id": 10000303, "stop_code": null, "stop_name": "Amar Rd and Unruh Ave E", "stop_desc": null, "stop_lat": 34.038421, "stop_lon": -117.953934, "zone_id": null, "stop_url": null, "location_t": 0, "parent_sta": null }, "geometry": { "type": "Point", "coordinates": [ 6575622.923937325365841, 1836367.514295546337962 ] } },
{ "type": "Feature", "properties": { "stop_id": 10000305, "stop_code": null, "stop_name": "Amar Rd and Unruh Ave W", "stop_desc": null, "stop_lat": 34.038704, "stop_lon": -117.953930, "zone_id": null, "stop_url": null, "location_t": 0, "parent_sta": null }, "geometry": { "type": "Point", "coordinates": [ 6575624.088582877069712, 1836470.504125514533371 ] } },
{ "type": "Feature", "properties": { "stop_id": 10000308, "stop_code": null, "stop_name": "Amar Rd and Valinda Ave E", "stop_desc": null, "stop_lat": 34.035594, "stop_lon": -117.925920, "zone_id": null, "stop_url": null, "location_t": 0, "parent_sta": null }, "geometry": { "type": "Point", "coordinates": [ 6584110.864323182031512, 1835343.785687681753188 ] } },
{ "type": "Feature", "properties": { "stop_id": 10000310, "stop_code": null, "stop_name": "Amar Rd and Valinda Ave W", "stop_desc": null, "stop_lat": 34.035805, "stop_lon": -117.925857, "zone_id": null, "stop_url": null, "location_t": 0, "parent_sta": null }, "geometry": { "type": "Point", "coordinates": [ 6584129.894943337887526, 1835420.586815842194483 ] } },
{ "type": "Feature", "properties": { "stop_id": 10000312, "stop_code": null, "stop_name": "Amar Rd and Vineland Ave E", "stop_desc": null, "stop_lat": 34.057829, "stop_lon": -117.983227, "zone_id": null, "stop_url": null, "location_t": 0, "parent_sta": null }, "geometry": { "type": "Point", "coordinates": [ 6566747.073429768905044, 1843427.691004449734464 ] } },
{ "type": "Feature", "properties": { "stop_id": 10000314, "stop_code": null, "stop_name": "Amar Rd and Vineland Ave W", "stop_desc": null, "stop_lat": 34.057785, "stop_lon": -117.982762, "zone_id": null, "stop_url": null, "location_t": 0, "parent_sta": null }, "geometry": { "type": "Point", "coordinates": [ 6566887.920933569781482, 1843411.702379685128108 ] } },
{ "type": "Feature", "properties": { "stop_id": 10000318, "stop_code": null, "stop_name": "Amar Rd and Westport St E", "stop_desc": null, "stop_lat": 34.027114, "stop_lon": -117.906340, "zone_id": null, "stop_url": null, "location_t": 0, "parent_sta": null }, "geometry": { "type": "Point", "coordinates": [ 6590045.938500413671136, 1832262.696230340516195 ] } },
{ "type": "Feature", "properties": { "stop_id": 10000320, "stop_code": null, "stop_name": "Amar Rd and Westport St W", "stop_desc": null, "stop_lat": 34.027699, "stop_lon": -117.906834, "zone_id": null, "stop_url": null, "location_t": 0, "parent_sta": null }, "geometry": { "type": "Point", "coordinates": [ 6589896.057679918594658, 1832475.450207655085251 ] } },
{ "type": "Feature", "properties": { "stop_id": 10000322, "stop_code": null, "stop_name": "Amar Rd and Willow Ave E", "stop_desc": null, "stop_lat": 34.052337, "stop_lon": -117.972849, "zone_id": null, "stop_url": null, "location_t": 0, "parent_sta": null }, "geometry": { "type": "Point", "coordinates": [ 6569891.025940245948732, 1841429.732332463841885 ] } },
{ "type": "Feature", "properties": { "stop_id": 10000324, "stop_code": null, "stop_name": "Amar Rd and Willow Ave W", "stop_desc": null, "stop_lat": 34.052273, "stop_lon": -117.972377, "zone_id": null, "stop_url": null, "location_t": 0, "parent_sta": null }, "geometry": { "type": "Point", "coordinates": [ 6570034.006724072620273, 1841406.480441331397742 ] } },
{ "type": "Feature", "properties": { "stop_id": 10000333, "stop_code": null, "stop_name": "Arcadia and Los Angeles St W", "stop_desc": null, "stop_lat": 34.055249, "stop_lon": -118.239047, "zone_id": null, "stop_url": null, "location_t": 0, "parent_sta": null }, "geometry": { "type": "Point", "coordinates": [ 6489259.088488841429353, 1842574.454182531684637 ] } },
{ "type": "Feature", "properties": { "stop_id": 10000347, "stop_code": null, "stop_name": "Arrow Hwy and Morada St. W", "stop_desc": null, "stop_lat": 34.107069, "stop_lon": -117.928682, "zone_id": null, "stop_url": null, "location_t": 0, "parent_sta": null }, "geometry": { "type": "Point", "coordinates": [ 6583255.599379984661937, 1861354.298486589221284 ] } },
{ "type": "Feature", "properties": { "stop_id": 10000349, "stop_code": null, "stop_name": "Arrow Hwy and Azusa Ave E", "stop_desc": null, "stop_lat": 34.106711, "stop_lon": -117.906750, "zone_id": null, "stop_url": null, "location_t": 0, "parent_sta": null }, "geometry": { "type": "Point", "coordinates": [ 6589894.834526747465134, 1861229.45049157505855 ] } },
{ "type": "Feature", "properties": { "stop_id": 10000351, "stop_code": null, "stop_name": "Arrow Hwy and Azusa Ave W", "stop_desc": null, "stop_lat": 34.106866, "stop_lon": -117.908183, "zone_id": null, "stop_url": null, "location_t": 0, "parent_sta": null }, "geometry": { "type": "Point", "coordinates": [ 6589460.992618570104241, 1861285.458528364775702 ] } },
{ "type": "Feature", "properties": { "stop_id": 10000353, "stop_code": null, "stop_name": "Arrow Hwy and Azusa Canyon Rd E", "stop_desc": null, "stop_lat": 34.106981, "stop_lon": -117.942638, "zone_id": null, "stop_url": null, "location_t": 0, "parent_sta": null }, "geometry": { "type": "Point", "coordinates": [ 6579030.946348780766129, 1861319.569468379952013 ] } },
{ "type": "Feature", "properties": { "stop_id": 10000355, "stop_code": null, "stop_name": "Arrow Hwy and Santa Fe Dam W", "stop_desc": null, "stop_lat": 34.107171, "stop_lon": -117.942800, "zone_id": null, "stop_url": null, "location_t": 0, "parent_sta": null }, "geometry": { "type": "Point", "coordinates": [ 6578981.867340979166329, 1861388.686062997672707 ] } },
{ "type": "Feature", "properties": { "stop_id": 10000365, "stop_code": null, "stop_name": "Arrow Hwy and Barranca Ave E", "stop_desc": null, "stop_lat": 34.106474, "stop_lon": -117.881062, "zone_id": null, "stop_url": null, "location_t": 0, "parent_sta": null }, "geometry": { "type": "Point", "coordinates": [ 6597671.074642023071647, 1861151.409421213902533 ] } },
{ "type": "Feature", "properties": { "stop_id": 10000367, "stop_code": null, "stop_name": "Arrow Hwy and Barranca Ave W", "stop_desc": null, "stop_lat": 34.106703, "stop_lon": -117.881198, "zone_id": null, "stop_url": null, "location_t": 0, "parent_sta": null }, "geometry": { "type": "Point", "coordinates": [ 6597629.806819394230843, 1861234.698058761190623 ] } },
{ "type": "Feature", "properties": { "stop_id": 10000381, "stop_code": null, "stop_name": "Arrow Hwy and Bonnie Cove Ave N", "stop_desc": null, "stop_lat": 34.106568, "stop_lon": -117.855699, "zone_id": null, "stop_url": null, "location_t": 0, "parent_sta": null }, "geometry": { "type": "Point", "coordinates": [ 6605348.800737392157316, 1861195.671241040807217 ] } },
{ "type": "Feature", "properties": { "stop_id": 10000383, "stop_code": null, "stop_name": "Arrow Hwy and Bonnie Cove Ave S", "stop_desc": null, "stop_lat": 34.106779, "stop_lon": -117.855566, "zone_id": null, "stop_url": null, "location_t": 0, "parent_sta": null }, "geometry": { "type": "Point", "coordinates": [ 6605388.951521061360836, 1861272.515832270262763 ] } },
{ "type": "Feature", "properties": { "stop_id": 10000387, "stop_code": null, "stop_name": "Arrow Hwy and Cambridge Ave W", "stop_desc": null, "stop_lat": 34.090457, "stop_lon": -117.728153, "zone_id": null, "stop_url": null, "location_t": 0, "parent_sta": null }, "geometry": { "type": "Point", "coordinates": [ 6643974.723010645247996, 1855412.521508562844247 ] } },
{ "type": "Feature", "properties": { "stop_id": 10000395, "stop_code": null, "stop_name": "Arrow Hwy and Cerritos Ave W", "stop_desc": null, "stop_lat": 34.106883, "stop_lon": -117.898610, "zone_id": null, "stop_url": null, "location_t": 0, "parent_sta": null }, "geometry": { "type": "Point", "coordinates": [ 6592358.870172684080899, 1861294.430207492085174 ] } },
{ "type": "Feature", "properties": { "stop_id": 10000399, "stop_code": null, "stop_name": "Arrow Hwy and Citrus Ave E", "stop_desc": null, "stop_lat": 34.106717, "stop_lon": -117.890685, "zone_id": null, "stop_url": null, "location_t": 0, "parent_sta": null }, "geometry": { "type": "Point", "coordinates": [ 6594757.94583604298532, 1861236.534162561176345 ] } },
{ "type": "Feature", "properties": { "stop_id": 10000401, "stop_code": null, "stop_name": "Arrow Hwy and Citrus Ave W", "stop_desc": null, "stop_lat": 34.106912, "stop_lon": -117.890711, "zone_id": null, "stop_url": null, "location_t": 0, "parent_sta": null }, "geometry": { "type": "Point", "coordinates": [ 6594749.998094542883337, 1861307.489707982633263 ] } },
{ "type": "Feature", "properties": { "stop_id": 10000407, "stop_code": null, "stop_name": "Arrow Hwy and Claremont Blvd N", "stop_desc": null, "stop_lat": 34.092580, "stop_lon": -117.706452, "zone_id": null, "stop_url": null, "location_t": 0, "parent_sta": null }, "geometry": { "type": "Point", "coordinates": [ 6650542.935555319301784, 1856203.597104410408065 ] } },
{ "type": "Feature", "properties": { "stop_id": 10000410, "stop_code": null, "stop_name": "Arrow Hwy and Claremont Blvd W", "stop_desc": null, "stop_lat": 34.092580, "stop_lon": -117.706641, "zone_id": null, "stop_url": null, "location_t": 0, "parent_sta": null }, "geometry": { "type": "Point", "coordinates": [ 6650485.712998485192657, 1856203.430045719025657 ] } },
{ "type": "Feature", "properties": { "stop_id": 10000412, "stop_code": null, "stop_name": "Arrow Hwy and Clydebank Ave E", "stop_desc": null, "stop_lat": 34.106947, "stop_lon": -117.920597, "zone_id": null, "stop_url": null, "location_t": 0, "parent_sta": null }, "geometry": { "type": "Point", "coordinates": [ 6585703.073899796232581, 1861311.735339557286352 ] } },
{ "type": "Feature", "properties": { "stop_id": 10000414, "stop_code": null, "stop_name": "Arrow Hwy and Clydebank Ave W", "stop_desc": null, "stop_lat": 34.107139, "stop_lon": -117.920072, "zone_id": null, "stop_url": null, "location_t": 0, "parent_sta": null }, "geometry": { "type": "Point", "coordinates": [ 6585861.943205490708351, 1861381.733664073515683 ] } },
{ "type": "Feature", "properties": { "stop_id": 10000430, "stop_code": null, "stop_name": "Arrow Hwy and Enid St E", "stop_desc": null, "stop_lat": 34.106967, "stop_lon": -117.914334, "zone_id": null, "stop_url": null, "location_t": 0, "parent_sta": null }, "geometry": { "type": "Point", "coordinates": [ 6587598.965627392753959, 1861320.570435678586364 ] } },
{ "type": "Feature", "properties": { "stop_id": 10000432, "stop_code": null, "stop_name": "Arrow Hwy and Enid St W", "stop_desc": null, "stop_lat": 34.107123, "stop_lon": -117.914046, "zone_id": null, "stop_url": null, "location_t": 0, "parent_sta": null }, "geometry": { "type": "Point", "coordinates": [ 6587686.098696690052748, 1861377.416157107334584 ] } },
{ "type": "Feature", "properties": { "stop_id": 10000439, "stop_code": null, "stop_name": "Arrow Hwy and Fair Ave E", "stop_desc": null, "stop_lat": 34.091355, "stop_lon": -117.760214, "zone_id": null, "stop_url": null, "location_t": 0, "parent_sta": null }, "geometry": { "type": "Point", "coordinates": [ 6634266.743217051960528, 1855714.614750011125579 ] } },
{ "type": "Feature", "properties": { "stop_id": 10000441, "stop_code": null, "stop_name": "Arrow Hwy and Fair Ave W", "stop_desc": null, "stop_lat": 34.091652, "stop_lon": -117.760226, "zone_id": null, "stop_url": null, "location_t": 0, "parent_sta": null }, "geometry": { "type": "Point", "coordinates": [ 6634262.852156080305576, 1855822.689684399170801 ] } },
{ "type": "Feature", "properties": { "stop_id": 10000443, "stop_code": null, "stop_name": "Arrow Hwy and Fairvalley Ave  E", "stop_desc": null, "stop_lat": 34.106665, "stop_lon": -117.885238, "zone_id": null, "stop_url": null, "location_t": 0, "parent_sta": null }, "geometry": { "type": "Point", "coordinates": [ 6596406.854796343483031, 1861219.448293543187901 ] } },
{ "type": "Feature", "properties": { "stop_id": 10000445, "stop_code": null, "stop_name": "Arrow Hwy and Fairvalley Ave  W", "stop_desc": null, "stop_lat": 34.106850, "stop_lon": -117.885588, "zone_id": null, "stop_url": null, "location_t": 0, "parent_sta": null }, "geometry": { "type": "Point", "coordinates": [ 6596300.827932031825185, 1861286.652427907567471 ] } },
{ "type": "Feature", "properties": { "stop_id": 10000461, "stop_code": null, "stop_name": "Arrow Hwy and Garey Ave E", "stop_desc": null, "stop_lat": 34.089917, "stop_lon": -117.748833, "zone_id": null, "stop_url": null, "location_t": 0, "parent_sta": null }, "geometry": { "type": "Point", "coordinates": [ 6637713.872504622675478, 1855199.716218633344397 ] } },
{ "type": "Feature", "properties": { "stop_id": 10000463, "stop_code": null, "stop_name": "Arrow Hwy and Garey Ave W", "stop_desc": null, "stop_lat": 34.090104, "stop_lon": -117.748879, "zone_id": null, "stop_url": null, "location_t": 0, "parent_sta": null }, "geometry": { "type": "Point", "coordinates": [ 6637699.774845981039107, 1855267.734042802592739 ] } },
{ "type": "Feature", "properties": { "stop_id": 10000465, "stop_code": null, "stop_name": "Arrow Hwy and Gayhurst Ave E", "stop_desc": null, "stop_lat": 34.106926, "stop_lon": -117.948637, "zone_id": null, "stop_url": null, "location_t": 0, "parent_sta": null }, "geometry": { "type": "Point", "coordinates": [ 6577214.975539980456233, 1861298.571805800078437 ] } },
{ "type": "Feature", "properties": { "stop_id": 10000467, "stop_code": null, "stop_name": "Arrow Hwy and Gayhurst Ave W", "stop_desc": null, "stop_lat": 34.107105, "stop_lon": -117.949308, "zone_id": null, "stop_url": null, "location_t": 0, "parent_sta": null }, "geometry": { "type": "Point", "coordinates": [ 6577011.821484988555312, 1861363.610129036242142 ] } },
{ "type": "Feature", "properties": { "stop_id": 10000469, "stop_code": null, "stop_name": "Arrow Hwy and Glendora Ave E", "stop_desc": null, "stop_lat": 34.106588, "stop_lon": -117.864060, "zone_id": null, "stop_url": null, "location_t": 0, "parent_sta": null }, "geometry": { "type": "Point", "coordinates": [ 6602817.789075286127627, 1861199.421387998154387 ] } },
{ "type": "Feature", "properties": { "stop_id": 10000473, "stop_code": null, "stop_name": "Arrow Hwy and Glendora Ave W", "stop_desc": null, "stop_lat": 34.106767, "stop_lon": -117.864195, "zone_id": null, "stop_url": null, "location_t": 0, "parent_sta": null }, "geometry": { "type": "Point", "coordinates": [ 6602776.834519703872502, 1861264.50753458449617 ] } },
{ "type": "Feature", "properties": { "stop_id": 10000475, "stop_code": null, "stop_name": "Arrow Hwy and Grand Ave E", "stop_desc": null, "stop_lat": 34.106040, "stop_lon": -117.872910, "zone_id": null, "stop_url": null, "location_t": 0, "parent_sta": null }, "geometry": { "type": "Point", "coordinates": [ 6600139.012002017349005, 1860996.488886596169323 ] } },
{ "type": "Feature", "properties": { "stop_id": 10000477, "stop_code": null, "stop_name": "Arrow Hwy and Grand Ave W", "stop_desc": null, "stop_lat": 34.106260, "stop_lon": -117.873085, "zone_id": null, "stop_url": null, "location_t": 0, "parent_sta": null }, "geometry": { "type": "Point", "coordinates": [ 6600085.935409254394472, 1861076.484003399964422 ] } },
{ "type": "Feature", "properties": { "stop_id": 10000483, "stop_code": null, "stop_name": "Arrow Hwy and Heintz St E", "stop_desc": null, "stop_lat": 34.106889, "stop_lon": -117.952515, "zone_id": null, "stop_url": null, "location_t": 0, "parent_sta": null }, "geometry": { "type": "Point", "coordinates": [ 6576041.056368135847151, 1861284.52959770266898 ] } },
{ "type": "Feature", "properties": { "stop_id": 10000485, "stop_code": null, "stop_name": "Arrow Hwy and Heintz St W", "stop_desc": null, "stop_lat": 34.107065, "stop_lon": -117.953189, "zone_id": null, "stop_url": null, "location_t": 0, "parent_sta": null }, "geometry": { "type": "Point", "coordinates": [ 6575836.997100099921227, 1861348.483579823980108 ] } },
{ "type": "Feature", "properties": { "stop_id": 10000487, "stop_code": null, "stop_name": "Arrow Hwy and Hollenbeck Ave E", "stop_desc": null, "stop_lat": 34.106694, "stop_lon": -117.898511, "zone_id": null, "stop_url": null, "location_t": 0, "parent_sta": null }, "geometry": { "type": "Point", "coordinates": [ 6592388.908324682153761, 1861225.679852629313245 ] } },
{ "type": "Feature", "properties": { "stop_id": 10000489, "stop_code": null, "stop_name": "Arrow Hwy and Indian Hill Blvd W", "stop_desc": null, "stop_lat": 34.090573, "stop_lon": -117.719760, "zone_id": null, "stop_url": null, "location_t": 0, "parent_sta": null }, "geometry": { "type": "Point", "coordinates": [ 6646515.776467672549188, 1855461.714625301305205 ] } },
{ "type": "Feature", "properties": { "stop_id": 10000491, "stop_code": null, "stop_name": "Arrow Hwy and Irwindale Ave E", "stop_desc": null, "stop_lat": 34.106894, "stop_lon": -117.933742, "zone_id": null, "stop_url": null, "location_t": 0, "parent_sta": null }, "geometry": { "type": "Point", "coordinates": [ 6581723.910477086901665, 1861289.564499030122533 ] } },
{ "type": "Feature", "properties": { "stop_id": 10000493, "stop_code": null, "stop_name": "Arrow Hwy and Irwindale Ave W", "stop_desc": null, "stop_lat": 34.107095, "stop_lon": -117.933923, "zone_id": null, "stop_url": null, "location_t": 0, "parent_sta": null }, "geometry": { "type": "Point", "coordinates": [ 6581669.0711121968925, 1861362.676073226612061 ] } },
{ "type": "Feature", "properties": { "stop_id": 10000495, "stop_code": null, "stop_name": "Arrow Hwy and Lark Ellen Ave E", "stop_desc": null, "stop_lat": 34.107001, "stop_lon": -117.916283, "zone_id": null, "stop_url": null, "location_t": 0, "parent_sta": null }, "geometry": { "type": "Point", "coordinates": [ 6587008.965841472148895, 1861332.446565036661923 ] } },
{ "type": "Feature", "properties": { "stop_id": 10000497, "stop_code": null, "stop_name": "Arrow Hwy and Lark Ellen Ave W", "stop_desc": null, "stop_lat": 34.107185, "stop_lon": -117.916356, "zone_id": null, "stop_url": null, "location_t": 0, "parent_sta": null }, "geometry": { "type": "Point", "coordinates": [ 6586986.812011308968067, 1861399.389184713596478 ] } },
{ "type": "Feature", "properties": { "stop_id": 10000501, "stop_code": null, "stop_name": "Arrow Hwy and Lone Hill Ave E", "stop_desc": null, "stop_lat": 34.106587, "stop_lon": -117.828482, "zone_id": null, "stop_url": null, "location_t": 0, "parent_sta": null }, "geometry": { "type": "Point", "coordinates": [ 6613587.786455581896007, 1861215.528964133001864 ] } },
{ "type": "Feature", "properties": { "stop_id": 10000505, "stop_code": null, "stop_name": "Arrow Hwy and Lone Hill Ave W", "stop_desc": null, "stop_lat": 34.106812, "stop_lon": -117.828461, "zone_id": null, "stop_url": null, "location_t": 0, "parent_sta": null }, "geometry": { "type": "Point", "coordinates": [ 6613594.003733527846634, 1861297.421399978222325 ] } },
{ "type": "Feature", "properties": { "stop_id": 10000509, "stop_code": null, "stop_name": "Arrow Hwy and Lyman Ave N", "stop_desc": null, "stop_lat": 34.106569, "stop_lon": -117.849964, "zone_id": null, "stop_url": null, "location_t": 0, "parent_sta": null }, "geometry": { "type": "Point", "coordinates": [ 6607084.87171415053308, 1861198.57697512791492 ] } },
{ "type": "Feature", "properties": { "stop_id": 10000511, "stop_code": null, "stop_name": "Arrow Hwy and Lyman Ave S", "stop_desc": null, "stop_lat": 34.106803, "stop_lon": -117.852167, "zone_id": null, "stop_url": null, "location_t": 0, "parent_sta": null }, "geometry": { "type": "Point", "coordinates": [ 6606417.864969321526587, 1861282.74574772384949 ] } },
{ "type": "Feature", "properties": { "stop_id": 10000513, "stop_code": null, "stop_name": "Arrow Hwy and Lyman Ave W", "stop_desc": null, "stop_lat": 34.106569, "stop_lon": -117.849964, "zone_id": null, "stop_url": null, "location_t": 0, "parent_sta": null }, "geometry": { "type": "Point", "coordinates": [ 6607084.87171415053308, 1861198.57697512791492 ] } },
{ "type": "Feature", "properties": { "stop_id": 10000517, "stop_code": null, "stop_name": "Arrow Hwy and Maimone Ave E", "stop_desc": null, "stop_lat": 34.106589, "stop_lon": -117.823883, "zone_id": null, "stop_url": null, "location_t": 0, "parent_sta": null }, "geometry": { "type": "Point", "coordinates": [ 6614979.971357579343021, 1861218.664224144537002 ] } },
{ "type": "Feature", "properties": { "stop_id": 10000521, "stop_code": null, "stop_name": "Arrow Hwy and Maimone Ave W", "stop_desc": null, "stop_lat": 34.106762, "stop_lon": -117.824015, "zone_id": null, "stop_url": null, "location_t": 0, "parent_sta": null }, "geometry": { "type": "Point", "coordinates": [ 6614939.902756374329329, 1861281.552076951833442 ] } },
{ "type": "Feature", "properties": { "stop_id": 10000523, "stop_code": null, "stop_name": "Arrow Hwy and Maine Ave E", "stop_desc": null, "stop_lat": 34.106801, "stop_lon": -117.960084, "zone_id": null, "stop_url": null, "location_t": 0, "parent_sta": null }, "geometry": { "type": "Point", "coordinates": [ 6573749.824494759552181, 1861251.508617714978755 ] } },
{ "type": "Feature", "properties": { "stop_id": 10000525, "stop_code": null, "stop_name": "Arrow Hwy and Maine Ave W", "stop_desc": null, "stop_lat": 34.107010, "stop_lon": -117.959360, "zone_id": null, "stop_url": null, "location_t": 0, "parent_sta": null }, "geometry": { "type": "Point", "coordinates": [ 6573968.959135504439473, 1861327.655440456233919 ] } },
{ "type": "Feature", "properties": { "stop_id": 10000527, "stop_code": null, "stop_name": "Arrow Hwy and Mariposa St E", "stop_desc": null, "stop_lat": 34.089897, "stop_lon": -117.752559, "zone_id": null, "stop_url": null, "location_t": 0, "parent_sta": null }, "geometry": { "type": "Point", "coordinates": [ 6636585.751325874589384, 1855189.639821550576016 ] } },
{ "type": "Feature", "properties": { "stop_id": 10000529, "stop_code": null, "stop_name": "Arrow Hwy and Mariposa St W", "stop_desc": null, "stop_lat": 34.090085, "stop_lon": -117.753258, "zone_id": null, "stop_url": null, "location_t": 0, "parent_sta": null }, "geometry": { "type": "Point", "coordinates": [ 6636373.943697968497872, 1855257.536113635869697 ] } },
{ "type": "Feature", "properties": { "stop_id": 10000535, "stop_code": null, "stop_name": "Arrow Hwy and Monte Vista Ave E", "stop_desc": null, "stop_lat": 34.092343, "stop_lon": -117.698549, "zone_id": null, "stop_url": null, "location_t": 0, "parent_sta": null }, "geometry": { "type": "Point", "coordinates": [ 6652935.944549263454974, 1856124.430560611654073 ] } },
{ "type": "Feature", "properties": { "stop_id": 10000546, "stop_code": null, "stop_name": "Arrow Hwy and Orange Grove Ave W", "stop_desc": null, "stop_lat": 34.090114, "stop_lon": -117.742227, "zone_id": null, "stop_url": null, "location_t": 0, "parent_sta": null }, "geometry": { "type": "Point", "coordinates": [ 6639713.819061944261193, 1855276.471580640412867 ] } },
{ "type": "Feature", "properties": { "stop_id": 10000548, "stop_code": null, "stop_name": "Arrow Hwy and Rennell Ave E", "stop_desc": null, "stop_lat": 34.106588, "stop_lon": -117.833034, "zone_id": null, "stop_url": null, "location_t": 0, "parent_sta": null }, "geometry": { "type": "Point", "coordinates": [ 6612209.827170688658953, 1861213.57278587250039 ] } },
{ "type": "Feature", "properties": { "stop_id": 10000566, "stop_code": null, "stop_name": "Arrow Hwy and Towne Ave E", "stop_desc": null, "stop_lat": 34.090021, "stop_lon": -117.737101, "zone_id": null, "stop_url": null, "location_t": 0, "parent_sta": null }, "geometry": { "type": "Point", "coordinates": [ 6641265.927380776032805, 1855246.646939244586974 ] } },
{ "type": "Feature", "properties": { "stop_id": 10000568, "stop_code": null, "stop_name": "Arrow Hwy and Towne Ave W", "stop_desc": null, "stop_lat": 34.090156, "stop_lon": -117.737302, "zone_id": null, "stop_url": null, "location_t": 0, "parent_sta": null }, "geometry": { "type": "Point", "coordinates": [ 6641204.941334845498204, 1855295.616712452145293 ] } },
{ "type": "Feature", "properties": { "stop_id": 10000572, "stop_code": null, "stop_name": "Arrow Hwy and Valley Center Ave E", "stop_desc": null, "stop_lat": 34.106595, "stop_lon": -117.837989, "zone_id": null, "stop_url": null, "location_t": 0, "parent_sta": null }, "geometry": { "type": "Point", "coordinates": [ 6610709.870139578357339, 1861213.665646720444784 ] } },
{ "type": "Feature", "properties": { "stop_id": 10000574, "stop_code": null, "stop_name": "Arrow Hwy and Valley Center Ave W", "stop_desc": null, "stop_lat": 34.106764, "stop_lon": -117.837417, "zone_id": null, "stop_url": null, "location_t": 0, "parent_sta": null }, "geometry": { "type": "Point", "coordinates": [ 6610882.92364473734051, 1861275.447403714526445 ] } },
{ "type": "Feature", "properties": { "stop_id": 10000576, "stop_code": null, "stop_name": "Arrow Hwy and Vincent Ave E", "stop_desc": null, "stop_lat": 34.106865, "stop_lon": -117.925652, "zone_id": null, "stop_url": null, "location_t": 0, "parent_sta": null }, "geometry": { "type": "Point", "coordinates": [ 6584172.876513798721135, 1861280.723698947811499 ] } },
{ "type": "Feature", "properties": { "stop_id": 10000578, "stop_code": null, "stop_name": "Arrow Hwy and Vincent Ave W", "stop_desc": null, "stop_lat": 34.107079, "stop_lon": -117.925153, "zone_id": null, "stop_url": null, "location_t": 0, "parent_sta": null }, "geometry": { "type": "Point", "coordinates": [ 6584323.872979043982923, 1861358.71438154974021 ] } },
{ "type": "Feature", "properties": { "stop_id": 10000582, "stop_code": null, "stop_name": "Arrow Hwy and White Ave E", "stop_desc": null, "stop_lat": 34.093750, "stop_lon": -117.763919, "zone_id": null, "stop_url": null, "location_t": 0, "parent_sta": null }, "geometry": { "type": "Point", "coordinates": [ 6633142.93430782482028, 1856583.542714125011116 ] } },
{ "type": "Feature", "properties": { "stop_id": 10000622, "stop_code": null, "stop_name": "Avenida Rancheros and Golden Springs N", "stop_desc": null, "stop_lat": 34.037593, "stop_lon": -117.794441, "zone_id": null, "stop_url": null, "location_t": 0, "parent_sta": null }, "geometry": { "type": "Point", "coordinates": [ 6623943.851048393175006, 1836126.669826915720478 ] } },
{ "type": "Feature", "properties": { "stop_id": 10000628, "stop_code": null, "stop_name": "Avenida Rancheros and Santa Clara N", "stop_desc": null, "stop_lat": 34.036954, "stop_lon": -117.787468, "zone_id": null, "stop_url": null, "location_t": 0, "parent_sta": null }, "geometry": { "type": "Point", "coordinates": [ 6626056.914653340354562, 1835898.519156017107889 ] } },
{ "type": "Feature", "properties": { "stop_id": 10000630, "stop_code": null, "stop_name": "Avenida Rancheros and Santa Clara S", "stop_desc": null, "stop_lat": 34.037051, "stop_lon": -117.787517, "zone_id": null, "stop_url": null, "location_t": 0, "parent_sta": null }, "geometry": { "type": "Point", "coordinates": [ 6626041.994656095281243, 1835933.787909071194008 ] } },
{ "type": "Feature", "properties": { "stop_id": 10000638, "stop_code": null, "stop_name": "Azusa and 1st St. N", "stop_desc": null, "stop_lat": 34.122020, "stop_lon": -117.907506, "zone_id": null, "stop_url": null, "location_t": 0, "parent_sta": null }, "geometry": { "type": "Point", "coordinates": [ 6589660.855541289784014, 1866800.466751914238557 ] } },
{ "type": "Feature", "properties": { "stop_id": 10000640, "stop_code": null, "stop_name": "Azusa and 3rd St. N", "stop_desc": null, "stop_lat": 34.126087, "stop_lon": -117.907518, "zone_id": null, "stop_url": null, "location_t": 0, "parent_sta": null }, "geometry": { "type": "Point", "coordinates": [ 6589655.861880120821297, 1868280.519385916180909 ] } },
{ "type": "Feature", "properties": { "stop_id": 10000644, "stop_code": null, "stop_name": "Azusa and 5th St. N", "stop_desc": null, "stop_lat": 34.129753, "stop_lon": -117.907481, "zone_id": null, "stop_url": null, "location_t": 0, "parent_sta": null }, "geometry": { "type": "Point", "coordinates": [ 6589665.831761347129941, 1869614.654270567232743 ] } },
{ "type": "Feature", "properties": { "stop_id": 10000648, "stop_code": null, "stop_name": "Azusa and Amar N", "stop_desc": null, "stop_lat": 34.031553, "stop_lon": -117.914520, "zone_id": null, "stop_url": null, "location_t": 0, "parent_sta": null }, "geometry": { "type": "Point", "coordinates": [ 6587565.999860050156713, 1833875.927518547745422 ] } },
{ "type": "Feature", "properties": { "stop_id": 10000650, "stop_code": null, "stop_name": "Azusa and Amar S", "stop_desc": null, "stop_lat": 34.031157, "stop_lon": -117.915065, "zone_id": null, "stop_url": null, "location_t": 0, "parent_sta": null }, "geometry": { "type": "Point", "coordinates": [ 6587400.993728618137538, 1833731.675321091432124 ] } },
{ "type": "Feature", "properties": { "stop_id": 10000652, "stop_code": null, "stop_name": "Azusa and Aroma N", "stop_desc": null, "stop_lat": 34.047661, "stop_lon": -117.908001, "zone_id": null, "stop_url": null, "location_t": 0, "parent_sta": null }, "geometry": { "type": "Point", "coordinates": [ 6589535.8066496681422, 1839739.687622609082609 ] } },
{ "type": "Feature", "properties": { "stop_id": 10000654, "stop_code": null, "stop_name": "Azusa and Arrow Hwy. S", "stop_desc": null, "stop_lat": 34.106396, "stop_lon": -117.907817, "zone_id": null, "stop_url": null, "location_t": 0, "parent_sta": null }, "geometry": { "type": "Point", "coordinates": [ 6589571.942910298705101, 1861114.518217768287286 ] } },
{ "type": "Feature", "properties": { "stop_id": 10000656, "stop_code": null, "stop_name": "Azusa and Badillo N", "stop_desc": null, "stop_lat": 34.086845, "stop_lon": -117.907664, "zone_id": null, "stop_url": null, "location_t": 0, "parent_sta": null }, "geometry": { "type": "Point", "coordinates": [ 6589624.794362926855683, 1853999.586860096780583 ] } },
{ "type": "Feature", "properties": { "stop_id": 10000658, "stop_code": null, "stop_name": "Azusa and Badillo S", "stop_desc": null, "stop_lat": 34.086768, "stop_lon": -117.907928, "zone_id": null, "stop_url": null, "location_t": 0, "parent_sta": null }, "geometry": { "type": "Point", "coordinates": [ 6589544.884321263991296, 1853971.491787854349241 ] } },
{ "type": "Feature", "properties": { "stop_id": 10000660, "stop_code": null, "stop_name": "Azusa and Cameron N", "stop_desc": null, "stop_lat": 34.061411, "stop_lon": -117.907774, "zone_id": null, "stop_url": null, "location_t": 0, "parent_sta": null }, "geometry": { "type": "Point", "coordinates": [ 6589599.980290076695383, 1844743.640939110191539 ] } },
{ "type": "Feature", "properties": { "stop_id": 10000662, "stop_code": null, "stop_name": "Azusa and Cameron S", "stop_desc": null, "stop_lat": 34.060826, "stop_lon": -117.908006, "zone_id": null, "stop_url": null, "location_t": 0, "parent_sta": null }, "geometry": { "type": "Point", "coordinates": [ 6589529.907235992141068, 1844530.683825780870393 ] } },
{ "type": "Feature", "properties": { "stop_id": 10000664, "stop_code": null, "stop_name": "Azusa and Cortez N", "stop_desc": null, "stop_lat": 34.065076, "stop_lon": -117.907701, "zone_id": null, "stop_url": null, "location_t": 0, "parent_sta": null }, "geometry": { "type": "Point", "coordinates": [ 6589620.865725522860885, 1846077.424909899011254 ] } },
{ "type": "Feature", "properties": { "stop_id": 10000666, "stop_code": null, "stop_name": "Azusa and Cortez S", "stop_desc": null, "stop_lat": 34.064980, "stop_lon": -117.907939, "zone_id": null, "stop_url": null, "location_t": 0, "parent_sta": null }, "geometry": { "type": "Point", "coordinates": [ 6589548.815712030045688, 1846042.422570831840858 ] } },
{ "type": "Feature", "properties": { "stop_id": 10000668, "stop_code": null, "stop_name": "Azusa and Covina Blvd. S", "stop_desc": null, "stop_lat": 34.099158, "stop_lon": -117.907875, "zone_id": null, "stop_url": null, "location_t": 0, "parent_sta": null }, "geometry": { "type": "Point", "coordinates": [ 6589556.799518660642207, 1858480.459357479820028 ] } },
{ "type": "Feature", "properties": { "stop_id": 10000670, "stop_code": null, "stop_name": "Azusa and Covina N", "stop_desc": null, "stop_lat": 34.099194, "stop_lon": -117.907623, "zone_id": null, "stop_url": null, "location_t": 0, "parent_sta": null }, "geometry": { "type": "Point", "coordinates": [ 6589633.078512458130717, 1858493.630445688962936 ] } },
{ "type": "Feature", "properties": { "stop_id": 10000672, "stop_code": null, "stop_name": "Azusa and Cypress N", "stop_desc": null, "stop_lat": 34.095528, "stop_lon": -117.907627, "zone_id": null, "stop_url": null, "location_t": 0, "parent_sta": null }, "geometry": { "type": "Point", "coordinates": [ 6589633.093580237589777, 1857159.503538467688486 ] } },
{ "type": "Feature", "properties": { "stop_id": 10000674, "stop_code": null, "stop_name": "Azusa and Cypress S", "stop_desc": null, "stop_lat": 34.095421, "stop_lon": -117.907898, "zone_id": null, "stop_url": null, "location_t": 0, "parent_sta": null }, "geometry": { "type": "Point", "coordinates": [ 6589551.082562425173819, 1857120.488950857194141 ] } },
{ "type": "Feature", "properties": { "stop_id": 10000680, "stop_code": null, "stop_name": "Azusa and Fairgrove N", "stop_desc": null, "stop_lat": 34.042885, "stop_lon": -117.911086, "zone_id": null, "stop_url": null, "location_t": 0, "parent_sta": null }, "geometry": { "type": "Point", "coordinates": [ 6588602.809224475175142, 1838000.767237080726773 ] } },
{ "type": "Feature", "properties": { "stop_id": 10000682, "stop_code": null, "stop_name": "Azusa and Fairgrove S", "stop_desc": null, "stop_lat": 34.042967, "stop_lon": -117.911406, "zone_id": null, "stop_url": null, "location_t": 0, "parent_sta": null }, "geometry": { "type": "Point", "coordinates": [ 6588505.840220964513719, 1838030.523038989165798 ] } },
{ "type": "Feature", "properties": { "stop_id": 10000684, "stop_code": null, "stop_name": "Azusa and Foothill N", "stop_desc": null, "stop_lat": 34.133028, "stop_lon": -117.907454, "zone_id": null, "stop_url": null, "location_t": 0, "parent_sta": null }, "geometry": { "type": "Point", "coordinates": [ 6589672.905487507581711, 1870806.494205247377977 ] } },
{ "type": "Feature", "properties": { "stop_id": 10000686, "stop_code": null, "stop_name": "Azusa and Francisquito N", "stop_desc": null, "stop_lat": 34.050409, "stop_lon": -117.907918, "zone_id": null, "stop_url": null, "location_t": 0, "parent_sta": null }, "geometry": { "type": "Point", "coordinates": [ 6589560.033594951964915, 1840739.761131229810417 ] } },
{ "type": "Feature", "properties": { "stop_id": 10000688, "stop_code": null, "stop_name": "Azusa and Francisquito S", "stop_desc": null, "stop_lat": 34.049928, "stop_lon": -117.908157, "zone_id": null, "stop_url": null, "location_t": 0, "parent_sta": null }, "geometry": { "type": "Point", "coordinates": [ 6589487.795967381447554, 1840564.649677293840796 ] } },
{ "type": "Feature", "properties": { "stop_id": 10000690, "stop_code": null, "stop_name": "Azusa and Gale N", "stop_desc": null, "stop_lat": 34.000457, "stop_lon": -117.930616, "zone_id": null, "stop_url": null, "location_t": 0, "parent_sta": null }, "geometry": { "type": "Point", "coordinates": [ 6582696.932580740191042, 1822555.710909750312567 ] } },
{ "type": "Feature", "properties": { "stop_id": 10000692, "stop_code": null, "stop_name": "Azusa and Gale S", "stop_desc": null, "stop_lat": 34.000556, "stop_lon": -117.930929, "zone_id": null, "stop_url": null, "location_t": 0, "parent_sta": null }, "geometry": { "type": "Point", "coordinates": [ 6582602.037649125792086, 1822591.673696028068662 ] } },
{ "type": "Feature", "properties": { "stop_id": 10000694, "stop_code": null, "stop_name": "Azusa and Gemini N", "stop_desc": null, "stop_lat": 34.018951, "stop_lon": -117.919816, "zone_id": null, "stop_url": null, "location_t": 0, "parent_sta": null }, "geometry": { "type": "Point", "coordinates": [ 6585965.039211676456034, 1829288.486837625736371 ] } },
{ "type": "Feature", "properties": { "stop_id": 10000696, "stop_code": null, "stop_name": "Azusa and Gemini S", "stop_desc": null, "stop_lat": 34.018850, "stop_lon": -117.920136, "zone_id": null, "stop_url": null, "location_t": 0, "parent_sta": null }, "geometry": { "type": "Point", "coordinates": [ 6585868.097977824509144, 1829251.653715334134176 ] } },
{ "type": "Feature", "properties": { "stop_id": 10000698, "stop_code": null, "stop_name": "Azusa and Gladstone N", "stop_desc": null, "stop_lat": 34.114554, "stop_lon": -117.907540, "zone_id": null, "stop_url": null, "location_t": 0, "parent_sta": null }, "geometry": { "type": "Point", "coordinates": [ 6589653.064357098191977, 1864083.442370914621279 ] } },
{ "type": "Feature", "properties": { "stop_id": 10000700, "stop_code": null, "stop_name": "Azusa and Gladstone S", "stop_desc": null, "stop_lat": 34.114456, "stop_lon": -117.907811, "zone_id": null, "stop_url": null, "location_t": 0, "parent_sta": null }, "geometry": { "type": "Point", "coordinates": [ 6589571.069036462344229, 1864047.703019358450547 ] } },
{ "type": "Feature", "properties": { "stop_id": 10000702, "stop_code": null, "stop_name": "Azusa and Grenoble S", "stop_desc": null, "stop_lat": 34.047565, "stop_lon": -117.908238, "zone_id": null, "stop_url": null, "location_t": 0, "parent_sta": null }, "geometry": { "type": "Point", "coordinates": [ 6589464.044454663060606, 1839704.685732924612239 ] } },
{ "type": "Feature", "properties": { "stop_id": 10000704, "stop_code": null, "stop_name": "Azusa and Grondahl N", "stop_desc": null, "stop_lat": 34.102456, "stop_lon": -117.907587, "zone_id": null, "stop_url": null, "location_t": 0, "parent_sta": null }, "geometry": { "type": "Point", "coordinates": [ 6589642.885830013081431, 1859680.742981266463175 ] } },
{ "type": "Feature", "properties": { "stop_id": 10000706, "stop_code": null, "stop_name": "Azusa and Grondahl S", "stop_desc": null, "stop_lat": 34.102173, "stop_lon": -117.907851, "zone_id": null, "stop_url": null, "location_t": 0, "parent_sta": null }, "geometry": { "type": "Point", "coordinates": [ 6589563.059457334689796, 1859577.680645940359682 ] } },
{ "type": "Feature", "properties": { "stop_id": 10000708, "stop_code": null, "stop_name": "Azusa and Hurley N", "stop_desc": null, "stop_lat": 34.011578, "stop_lon": -117.923420, "zone_id": null, "stop_url": null, "location_t": 0, "parent_sta": null }, "geometry": { "type": "Point", "coordinates": [ 6584874.95386039186269, 1826604.452283211052418 ] } },
{ "type": "Feature", "properties": { "stop_id": 10000710, "stop_code": null, "stop_name": "Azusa and Hurley S", "stop_desc": null, "stop_lat": 34.011469, "stop_lon": -117.923803, "zone_id": null, "stop_url": null, "location_t": 0, "parent_sta": null }, "geometry": { "type": "Point", "coordinates": [ 6584758.912210662849247, 1826564.696773383766413 ] } },
{ "type": "Feature", "properties": { "stop_id": 10000712, "stop_code": null, "stop_name": "Azusa and Main S", "stop_desc": null, "stop_lat": 34.013076, "stop_lon": -117.923214, "zone_id": null, "stop_url": null, "location_t": 0, "parent_sta": null }, "geometry": { "type": "Point", "coordinates": [ 6584936.967631655745208, 1827149.65231976727955 ] } },
{ "type": "Feature", "properties": { "stop_id": 10000714, "stop_code": null, "stop_name": "Azusa and Merced N", "stop_desc": null, "stop_lat": 34.054126, "stop_lon": -117.907858, "zone_id": null, "stop_url": null, "location_t": 0, "parent_sta": null }, "geometry": { "type": "Point", "coordinates": [ 6589576.968730692751706, 1842092.465949186356738 ] } },
{ "type": "Feature", "properties": { "stop_id": 10000716, "stop_code": null, "stop_name": "Azusa and Merced S", "stop_desc": null, "stop_lat": 34.053593, "stop_lon": -117.908073, "zone_id": null, "stop_url": null, "location_t": 0, "parent_sta": null }, "geometry": { "type": "Point", "coordinates": [ 6589512.021498039364815, 1841898.437329885549843 ] } },
{ "type": "Feature", "properties": { "stop_id": 10000718, "stop_code": null, "stop_name": "Azusa and Newburgh N", "stop_desc": null, "stop_lat": 34.110020, "stop_lon": -117.907542, "zone_id": null, "stop_url": null, "location_t": 0, "parent_sta": null }, "geometry": { "type": "Point", "coordinates": [ 6589653.976703744381666, 1862433.435418061446398 ] } },
{ "type": "Feature", "properties": { "stop_id": 10000720, "stop_code": null, "stop_name": "Azusa and Newburgh S", "stop_desc": null, "stop_lat": 34.110045, "stop_lon": -117.907813, "zone_id": null, "stop_url": null, "location_t": 0, "parent_sta": null }, "geometry": { "type": "Point", "coordinates": [ 6589571.935881306417286, 1862442.458035688148811 ] } },
{ "type": "Feature", "properties": { "stop_id": 10000722, "stop_code": null, "stop_name": "Azusa & Arrow Hwy N", "stop_desc": null, "stop_lat": 34.107377, "stop_lon": -117.907542, "zone_id": null, "stop_url": null, "location_t": 0, "parent_sta": null }, "geometry": { "type": "Point", "coordinates": [ 6589654.861426559276879, 1861471.598766193259507 ] } },
{ "type": "Feature", "properties": { "stop_id": 10000724, "stop_code": null, "stop_name": "Azusa and Paramount N", "stop_desc": null, "stop_lat": 34.118366, "stop_lon": -117.907526, "zone_id": null, "stop_url": null, "location_t": 0, "parent_sta": null }, "geometry": { "type": "Point", "coordinates": [ 6589656.025710885412991, 1865470.703351922333241 ] } },
{ "type": "Feature", "properties": { "stop_id": 10000726, "stop_code": null, "stop_name": "Azusa and Paramount S", "stop_desc": null, "stop_lat": 34.118300, "stop_lon": -117.907774, "zone_id": null, "stop_url": null, "location_t": 0, "parent_sta": null }, "geometry": { "type": "Point", "coordinates": [ 6589580.984929753467441, 1865446.615772164193913 ] } },
{ "type": "Feature", "properties": { "stop_id": 10000728, "stop_code": null, "stop_name": "Azusa and Puente N", "stop_desc": null, "stop_lat": 34.083160, "stop_lon": -117.907651, "zone_id": null, "stop_url": null, "location_t": 0, "parent_sta": null }, "geometry": { "type": "Point", "coordinates": [ 6589629.962661679834127, 1852658.54962629172951 ] } },
{ "type": "Feature", "properties": { "stop_id": 10000730, "stop_code": null, "stop_name": "Azusa and Puente S", "stop_desc": null, "stop_lat": 34.082495, "stop_lon": -117.907906, "zone_id": null, "stop_url": null, "location_t": 0, "parent_sta": null }, "geometry": { "type": "Point", "coordinates": [ 6589552.970358597114682, 1852416.472748715896159 ] } },
{ "type": "Feature", "properties": { "stop_id": 10000732, "stop_code": null, "stop_name": "Azusa and Railroad N", "stop_desc": null, "stop_lat": 34.003375, "stop_lon": -117.930241, "zone_id": null, "stop_url": null, "location_t": 0, "parent_sta": null }, "geometry": { "type": "Point", "coordinates": [ 6582809.857954256236553, 1823617.709362045396119 ] } },
{ "type": "Feature", "properties": { "stop_id": 10000734, "stop_code": null, "stop_name": "Azusa and Railroad S", "stop_desc": null, "stop_lat": 34.004100, "stop_lon": -117.930418, "zone_id": null, "stop_url": null, "location_t": 0, "parent_sta": null }, "geometry": { "type": "Point", "coordinates": [ 6582756.028552439063787, 1823881.514451931929216 ] } },
{ "type": "Feature", "properties": { "stop_id": 10000736, "stop_code": null, "stop_name": "Azusa and Rowland N", "stop_desc": null, "stop_lat": 34.078895, "stop_lon": -117.907656, "zone_id": null, "stop_url": null, "location_t": 0, "parent_sta": null }, "geometry": { "type": "Point", "coordinates": [ 6589629.874576318077743, 1851106.43423100723885 ] } },
{ "type": "Feature", "properties": { "stop_id": 10000738, "stop_code": null, "stop_name": "Azusa and Rowland S", "stop_desc": null, "stop_lat": 34.079376, "stop_lon": -117.907886, "zone_id": null, "stop_url": null, "location_t": 0, "parent_sta": null }, "geometry": { "type": "Point", "coordinates": [ 6589560.066585562191904, 1851281.415318598039448 ] } },
{ "type": "Feature", "properties": { "stop_id": 10000740, "stop_code": null, "stop_name": "Azusa and San Bernardino N", "stop_desc": null, "stop_lat": 34.089370, "stop_lon": -117.907667, "zone_id": null, "stop_url": null, "location_t": 0, "parent_sta": null }, "geometry": { "type": "Point", "coordinates": [ 6589623.041921440511942, 1854918.480937591055408 ] } },
{ "type": "Feature", "properties": { "stop_id": 10000742, "stop_code": null, "stop_name": "Azusa and San Bernardino S", "stop_desc": null, "stop_lat": 34.088703, "stop_lon": -117.907936, "zone_id": null, "stop_url": null, "location_t": 0, "parent_sta": null }, "geometry": { "type": "Point", "coordinates": [ 6589541.817059006541967, 1854675.6724140974693 ] } },
{ "type": "Feature", "properties": { "stop_id": 10000746, "stop_code": null, "stop_name": "Azusa and S Garvey N", "stop_desc": null, "stop_lat": 34.070328, "stop_lon": -117.907626, "zone_id": null, "stop_url": null, "location_t": 0, "parent_sta": null }, "geometry": { "type": "Point", "coordinates": [ 6589641.824175016023219, 1847988.748763611540198 ] } },
{ "type": "Feature", "properties": { "stop_id": 10000748, "stop_code": null, "stop_name": "Azusa and S Garvey S", "stop_desc": null, "stop_lat": 34.069762, "stop_lon": -117.907867, "zone_id": null, "stop_url": null, "location_t": 0, "parent_sta": null }, "geometry": { "type": "Point", "coordinates": [ 6589569.026948252692819, 1847782.703600947046652 ] } },
{ "type": "Feature", "properties": { "stop_id": 10000750, "stop_code": null, "stop_name": "Azusa and Temple N", "stop_desc": null, "stop_lat": 34.024347, "stop_lon": -117.917550, "zone_id": null, "stop_url": null, "location_t": 0, "parent_sta": null }, "geometry": { "type": "Point", "coordinates": [ 6586650.100360050797462, 1831252.754403770668432 ] } },
{ "type": "Feature", "properties": { "stop_id": 10000752, "stop_code": null, "stop_name": "Azusa and Temple S", "stop_desc": null, "stop_lat": 34.024124, "stop_lon": -117.918026, "zone_id": null, "stop_url": null, "location_t": 0, "parent_sta": null }, "geometry": { "type": "Point", "coordinates": [ 6586505.932319008745253, 1831171.482298163464293 ] } },
{ "type": "Feature", "properties": { "stop_id": 10000754, "stop_code": null, "stop_name": "Azusa and Vine N", "stop_desc": null, "stop_lat": 34.057726, "stop_lon": -117.907798, "zone_id": null, "stop_url": null, "location_t": 0, "parent_sta": null }, "geometry": { "type": "Point", "coordinates": [ 6589593.941308200359344, 1843402.591986876912415 ] } },
{ "type": "Feature", "properties": { "stop_id": 10000756, "stop_code": null, "stop_name": "Azusa and Vine S", "stop_desc": null, "stop_lat": 34.057243, "stop_lon": -117.908056, "zone_id": null, "stop_url": null, "location_t": 0, "parent_sta": null }, "geometry": { "type": "Point", "coordinates": [ 6589515.955901816487312, 1843226.747410232899711 ] } },
{ "type": "Feature", "properties": { "stop_id": 10000758, "stop_code": null, "stop_name": "Azusa and Wing Lane N", "stop_desc": null, "stop_lat": 34.027198, "stop_lon": -117.916495, "zone_id": null, "stop_url": null, "location_t": 0, "parent_sta": null }, "geometry": { "type": "Point", "coordinates": [ 6586968.917213894426823, 1832290.553830118384212 ] } },
{ "type": "Feature", "properties": { "stop_id": 10000760, "stop_code": null, "stop_name": "Azusa and Winglane S", "stop_desc": null, "stop_lat": 34.027663, "stop_lon": -117.916600, "zone_id": null, "stop_url": null, "location_t": 0, "parent_sta": null }, "geometry": { "type": "Point", "coordinates": [ 6586936.961518874391913, 1832459.750136615242809 ] } },
{ "type": "Feature", "properties": { "stop_id": 10000762, "stop_code": null, "stop_name": "Azusa and Workman N", "stop_desc": null, "stop_lat": 34.076204, "stop_lon": -117.907617, "zone_id": null, "stop_url": null, "location_t": 0, "parent_sta": null }, "geometry": { "type": "Point", "coordinates": [ 6589642.584443867206573, 1850127.139253417961299 ] } },
{ "type": "Feature", "properties": { "stop_id": 10000764, "stop_code": null, "stop_name": "Azusa and Workman S", "stop_desc": null, "stop_lat": 34.075719, "stop_lon": -117.907871, "zone_id": null, "stop_url": null, "location_t": 0, "parent_sta": null }, "geometry": { "type": "Point", "coordinates": [ 6589565.828589309938252, 1849950.567966303788126 ] } },
{ "type": "Feature", "properties": { "stop_id": 10000770, "stop_code": null, "stop_name": "Covina Blvd. and Kimberly Ave.", "stop_desc": null, "stop_lat": 34.099476, "stop_lon": -117.835668, "zone_id": null, "stop_url": null, "location_t": 0, "parent_sta": null }, "geometry": { "type": "Point", "coordinates": [ 6611416.707176901400089, 1858624.072143594035879 ] } },
{ "type": "Feature", "properties": { "stop_id": 10000776, "stop_code": null, "stop_name": "Baldwin Park Blvd and Bess E", "stop_desc": null, "stop_lat": 34.063473, "stop_lon": -117.985907, "zone_id": null, "stop_url": null, "location_t": 0, "parent_sta": null }, "geometry": { "type": "Point", "coordinates": [ 6565935.035019506700337, 1845481.527127133216709 ] } },
{ "type": "Feature", "properties": { "stop_id": 10000778, "stop_code": null, "stop_name": "Baldwin Park Blvd and Bess W", "stop_desc": null, "stop_lat": 34.063418, "stop_lon": -117.985739, "zone_id": null, "stop_url": null, "location_t": 0, "parent_sta": null }, "geometry": { "type": "Point", "coordinates": [ 6565985.920274527743459, 1845461.518742463784292 ] } },
{ "type": "Feature", "properties": { "stop_id": 10000780, "stop_code": null, "stop_name": "Baldwin Park Blvd and Nubia St N", "stop_desc": null, "stop_lat": 34.103412, "stop_lon": -117.964862, "zone_id": null, "stop_url": null, "location_t": 0, "parent_sta": null }, "geometry": { "type": "Point", "coordinates": [ 6572303.885112882591784, 1860017.648174231639132 ] } },
{ "type": "Feature", "properties": { "stop_id": 10000782, "stop_code": null, "stop_name": "Baldwin Park Blvd and Nubia St S", "stop_desc": null, "stop_lat": 34.103313, "stop_lon": -117.965040, "zone_id": null, "stop_url": null, "location_t": 0, "parent_sta": null }, "geometry": { "type": "Point", "coordinates": [ 6572250.012254265137017, 1859981.601432271534577 ] } },
{ "type": "Feature", "properties": { "stop_id": 10000784, "stop_code": null, "stop_name": "Baldwin Park Blvd and Los Angeles St E", "stop_desc": null, "stop_lat": 34.091887, "stop_lon": -117.965045, "zone_id": null, "stop_url": null, "location_t": 0, "parent_sta": null }, "geometry": { "type": "Point", "coordinates": [ 6572249.944621308706701, 1855823.464861456071958 ] } },
{ "type": "Feature", "properties": { "stop_id": 10000788, "stop_code": null, "stop_name": "Baldwin Park Blvd and Los Angeles St S", "stop_desc": null, "stop_lat": 34.091896, "stop_lon": -117.965048, "zone_id": null, "stop_url": null, "location_t": 0, "parent_sta": null }, "geometry": { "type": "Point", "coordinates": [ 6572249.035176530480385, 1855826.739815323846415 ] } },
{ "type": "Feature", "properties": { "stop_id": 10000790, "stop_code": null, "stop_name": "Baldwin Park Blvd and Merced Ave N", "stop_desc": null, "stop_lat": 34.078996, "stop_lon": -117.969594, "zone_id": null, "stop_url": null, "location_t": 0, "parent_sta": null }, "geometry": { "type": "Point", "coordinates": [ 6570874.069200747646391, 1851131.737870579585433 ] } },
{ "type": "Feature", "properties": { "stop_id": 10000792, "stop_code": null, "stop_name": "Baldwin Park Blvd and Olive St N", "stop_desc": null, "stop_lat": 34.099153, "stop_lon": -117.964781, "zone_id": null, "stop_url": null, "location_t": 0, "parent_sta": null }, "geometry": { "type": "Point", "coordinates": [ 6572328.949055452831089, 1858467.726844282122329 ] } },
{ "type": "Feature", "properties": { "stop_id": 10000794, "stop_code": null, "stop_name": "Baldwin Park Blvd and Olive St S", "stop_desc": null, "stop_lat": 34.099807, "stop_lon": -117.965018, "zone_id": null, "stop_url": null, "location_t": 0, "parent_sta": null }, "geometry": { "type": "Point", "coordinates": [ 6572257.116294253617525, 1858705.704659341601655 ] } },
{ "type": "Feature", "properties": { "stop_id": 10000796, "stop_code": null, "stop_name": "Baldwin Park Blvd and Park Shadow Ct E", "stop_desc": null, "stop_lat": 34.088114, "stop_lon": -117.964980, "zone_id": null, "stop_url": null, "location_t": 0, "parent_sta": null }, "geometry": { "type": "Point", "coordinates": [ 6572270.10295779351145, 1854450.405765798641369 ] } },
{ "type": "Feature", "properties": { "stop_id": 10000804, "stop_code": null, "stop_name": "Baldwin Park Blvd and Ramona Blvd S", "stop_desc": null, "stop_lat": 34.085034, "stop_lon": -117.964906, "zone_id": null, "stop_url": null, "location_t": 0, "parent_sta": null }, "geometry": { "type": "Point", "coordinates": [ 6572292.90018314961344, 1853329.543278182158247 ] } },
{ "type": "Feature", "properties": { "stop_id": 10000806, "stop_code": null, "stop_name": "Baldwin Park Blvd and Stewart Ave N", "stop_desc": null, "stop_lat": 34.081537, "stop_lon": -117.966905, "zone_id": null, "stop_url": null, "location_t": 0, "parent_sta": null }, "geometry": { "type": "Point", "coordinates": [ 6571688.035098406486213, 1852056.713306805118918 ] } },
{ "type": "Feature", "properties": { "stop_id": 10000818, "stop_code": null, "stop_name": "Barranca Ave and No Garvey Ave S", "stop_desc": null, "stop_lat": 34.073750, "stop_lon": -117.881423, "zone_id": null, "stop_url": null, "location_t": 0, "parent_sta": null }, "geometry": { "type": "Point", "coordinates": [ 6597575.842887817882001, 1849242.406233867164701 ] } },
{ "type": "Feature", "properties": { "stop_id": 10000826, "stop_code": null, "stop_name": "Barranca Ave and Park & Ride W", "stop_desc": null, "stop_lat": 34.130381, "stop_lon": -117.881468, "zone_id": null, "stop_url": null, "location_t": 0, "parent_sta": null }, "geometry": { "type": "Point", "coordinates": [ 6597537.912599632516503, 1869851.45953182852827 ] } },
{ "type": "Feature", "properties": { "stop_id": 10000831, "stop_code": null, "stop_name": "Barranca Ave and Puente St S", "stop_desc": null, "stop_lat": 34.082142, "stop_lon": -117.881437, "zone_id": null, "stop_url": null, "location_t": 0, "parent_sta": null }, "geometry": { "type": "Point", "coordinates": [ 6597568.000903871841729, 1852296.40797739312984 ] } },
{ "type": "Feature", "properties": { "stop_id": 10000833, "stop_code": null, "stop_name": "Barranca Ave and Rowland Ave E", "stop_desc": null, "stop_lat": 34.078589, "stop_lon": -117.881238, "zone_id": null, "stop_url": null, "location_t": 0, "parent_sta": null }, "geometry": { "type": "Point", "coordinates": [ 6597629.786546394228935, 1851003.475671624531969 ] } },
{ "type": "Feature", "properties": { "stop_id": 10000837, "stop_code": null, "stop_name": "Barranca Ave and Rowland Ave N", "stop_desc": null, "stop_lat": 34.078545, "stop_lon": -117.881238, "zone_id": null, "stop_url": null, "location_t": 0, "parent_sta": null }, "geometry": { "type": "Point", "coordinates": [ 6597629.805465308018029, 1850987.463243959704414 ] } },