{"id":"165","county":"Los Angeles ","city":"Los Angeles","name":"Vermont Village CDU Farmers' Market","location":"Crenshaw Christian Center ","address":"7901","street":"S Vermont Ave","cross_st_1":"W 79th St","cross_st_2":"W 78 St","zip":"90044","month_open":"Year Round","month_closed":"","days":"Sunday","frequency":"","hour_open":"10:00:00","hour_closed":"14:00:00","manager":"Cynthia Davis","phone":"3235639309","association_name":"Charles Drew University","offers_ebt":"1","offers_market_match":"1","offers_WIC_FMNP":"1","offers_WIC_FVC":"0","website":"https://www.soilmate.com/markets/vermont-villagecdu-farmers-market","email":"cynthiadavis@cdrewu.edu","latitude":"33.96821","longitude":"-118.29266","mm_max":"","mm_start":"","mm_end":"","site_type":"","offers_f5":"1"},{"id":"166","county":"Los Angeles ","city":"Long Beach","name":"CSULB Farmers' Market ","location":"California State University Long Beach","address":"1250","street":"Bellflower Blvd ","cross_st_1":"Palo Verde Ave","cross_st_2":"","zip":"90840","month_open":"Year Round ","month_closed":"","days":"Wednesday","frequency":"Bi-monthly","hour_open":"10:00:00","hour_closed":"14:00:00","manager":"Nick Spano","phone":"3233786818","association_name":"City Farm","offers_ebt":"1","offers_market_match":"0","offers_WIC_FMNP":"0","offers_WIC_FVC":"0","website":"http://www.lacityfarm.com/about-city-farm/","email":"","latitude":"33.785423","longitude":"-118.119799","mm_max":"","mm_start":"","mm_end":"","site_type":""},{"id":"167","county":"Los Angeles","city":"Santa Monica","name":"Santa Monica Main Street Farmers' Market","location":"","address":"2640","street":"Main St","cross_st_1":"Ocean Park Blvd","cross_st_2":"","zip":"90405","month_open":"Year Round","month_closed":"","days":"Sunday","frequency":"","hour_open":"09:30:00","hour_closed":"13:00:00","manager":"Jodi Low","phone":"3104588712","association_name":"City of Santa Monica","offers_ebt":"1","offers_market_match":"0","offers_WIC_FMNP":"1","offers_WIC_FVC":"0","website":"http://www.smgov.net/portals/farmersmarket/","email":"laura.avery@smgov.net; jodi.low@smgov.net","latitude":"34.0014683","longitude":"-118.4833285","mm_max":"","mm_start":"","mm_end":"","site_type":""},{"id":"168","county":"Los Angeles","city":"Santa Monica","name":"Santa Monica Saturday Downtown Farmers' Market","location":"","address":"300","street":"Arizona Ave","cross_st_1":"3rd St Promenade","cross_st_2":"","zip":"90401","month_open":"Year Round","month_closed":"","days":"Saturday","frequency":"","hour_open":"08:30:00","hour_closed":"13:00:00","manager":"Mort Bernstein/Laura Avery/Darra Henigan","phone":"3104588712","association_name":"City of Santa Monica","offers_ebt":"1","offers_market_match":"0","offers_WIC_FMNP":"1","offers_WIC_FVC":"0","website":"http://www.smgov.net/portals/farmersmarket/","email":"laura.avery@smgov.net","latitude":"34.0170227","longitude":"-118.4976073","mm_max":"","mm_start":"","mm_end":"","site_type":""},{"id":"169","county":"Los Angeles","city":"Santa Monica","name":"Santa Monica Wednesday Downtown ","location":"","address":"200","street":"Arizona Ave","cross_st_1":"2nd St ","cross_st_2":"","zip":"90401","month_open":"Year Round","month_closed":"","days":"Wednesday","frequency":"","hour_open":"08:30:00","hour_closed":"13:30:00","manager":"Laura Avery","phone":"3104588712","association_name":"City of Santa Monica","offers_ebt":"1","offers_market_match":"0","offers_WIC_FMNP":"1","offers_WIC_FVC":"0","website":"http://www.smgov.net/portals/farmersmarket/","email":"","latitude":"34.0162045","longitude":"-118.4986105","mm_max":"","mm_start":"","mm_end":"","site_type":""},{"id":"170","county":"Los Angeles","city":"Torrance","name":"Torrance Certified Farmers' Market - Saturday","location":"","address":"2400","street":"Jefferson St","cross_st_1":"Crenshaw","cross_st_2":"Jefferson","zip":"90501","month_open":"Year Round","month_closed":"","days":"Saturday","frequency":"","hour_open":"08:00:00","hour_closed":"13:00:00","manager":"Joyce Chan","phone":"3107817520","association_name":"City of Torrance","offers_ebt":"0","offers_market_match":"0","offers_WIC_FMNP":"0","offers_WIC_FVC":"0","website":"http://www.torranceca.gov/6620.htm","email":"jchan@torranceca.gov","latitude":"33.827116","longitude":"-118.327493","mm_max":"","mm_start":"","mm_end":"","site_type":""},{"id":"171","county":"Los Angeles","city":"Torrance","name":"Torrance Certified Farmers' Market","location":"","address":"2400","street":"Crenshaw Blvd","cross_st_1":"Carson","cross_st_2":"Sepulveda","zip":"90503","month_open":"Year Round","month_closed":"","days":"Tuesday","frequency":"","hour_open":"08:00:00","hour_closed":"13:00:00","manager":"Joyce Chan","phone":"3107817520","association_name":"City of Torrance","offers_ebt":"0","offers_market_match":"0","offers_WIC_FMNP":"0","offers_WIC_FVC":"0","website":"http://www.torranceca.gov/6620.htm","email":"jchan@torranceca.gov","latitude":"33.827116","longitude":"-118.327493","mm_max":"","mm_start":"","mm_end":"","site_type":""},{"id":"172","county":"Los Angeles","city":"Los Angeles","name":"Eagle Rock CFM","location":"","address":"2100","street":"Merton Ave","cross_st_1":"Merton Ave","cross_st_2":"Casper Ave","zip":"90041","month_open":"Year Round","month_closed":"","days":"Friday","frequency":"","hour_open":"17:00:00","hour_closed":"20:00:00","manager":"Michael Noguiera","phone":"3232255466","association_name":"Eagle Rock Chamber of Commerce","offers_ebt":"0","offers_market_match":"0","offers_WIC_FMNP":"0","offers_WIC_FVC":"0","website":"http://www.eaglerockchamberofcommerce.com/#!farmers-market/c7qs","email":"","latitude":"34.13941","longitude":"-118.210946","mm_max":"","mm_start":"","mm_end":"","site_type":""},{"id":"173","county":"Los Angeles","city":"Northridge","name":"Northridge Farmers Market & Family Festival","location":"Northridge Fashion Center in front of Borders Bookstore","address":"9301","street":"Tampa Ave","cross_st_1":"Pummer St","cross_st_2":"","zip":"91324","month_open":"March","month_closed":"November","days":"Wednesday","frequency":"","hour_open":"17:00:00","hour_closed":"21:00:00","manager":"Mark Rochin","phone":"8056436458","association_name":"Farmers' Market of Channel Islands, Harbor, Inc.","offers_ebt":"0","offers_market_match":"0","offers_WIC_FMNP":"1","offers_WIC_FVC":"0","website":"http://coastalpacific.info/northridge.php","email":"pacific209@hotmail.com","latitude":"34.2391367","longitude":"-118.5536313","mm_max":"","mm_start":"","mm_end":"","site_type":""},{"id":"174","county":"Los Angeles","city":"Canoga Park","name":"Main Street Canoga Park CFM","location":"Between Wyandotte St & Sherman Way","address":"7248","street":"Owensmouth Ave","cross_st_1":"Owensmouth Ave","cross_st_2":"Sherman Way","zip":"91303","month_open":"Year Round","month_closed":"","days":"Saturday","frequency":"","hour_open":"09:00:00","hour_closed":"13:30:00","manager":"Mark Rochin/Siri Bussarkum/Peggy Bull","phone":"8056436458","association_name":"Farmers' Market of Channel Islands, Harbor, Inc.","offers_ebt":"1","offers_market_match":"0","offers_WIC_FMNP":"1","offers_WIC_FVC":"1","website":"http://www.mainstreetcanogapark.com/farmersmarket.php","email":"pacific209@hotmail.com","latitude":"34.201238","longitude":"-118.601561","mm_max":"","mm_start":"","mm_end":"","site_type":""},{"id":"175","county":"Los Angeles","city":"Whittier","name":"Uptown Whittier Farmers Market- Wednesday","location":"Southwest corner of Bright & Philadelphia","address":"13018","street":"Philadelphia St","cross_st_1":"Bright","cross_st_2":"Philadelphia","zip":"90601","month_open":"Year Round","month_closed":"","days":"Friday","frequency":"","hour_open":"09:00:00","hour_closed":"13:00:00","manager":"Kay Thomas","phone":"7145265814","association_name":"Fullerton Certified Farmers Market","offers_ebt":"1","offers_market_match":"0","offers_WIC_FMNP":"1","offers_WIC_FVC":"0","website":"","email":"kaethomas@att.net","latitude":"33.9787673","longitude":"-118.0364794","mm_max":"","mm_start":"","mm_end":"","site_type":""},{"id":"176","county":"Los Angeles","city":"Los Angeles","name":"La Cienega CFM @ Kaiser West LA","location":"Kaiser Permanente West LA","address":"6041","street":"Cadillac Ave","cross_st_1":"Cadillac Ave","cross_st_2":"La Cienega Blvd","zip":"90034","month_open":"Year Round","month_closed":"","days":"Wednesday","frequency":"","hour_open":"09:00:00","hour_closed":"14:30:00","manager":"Cynthia Ojeda","phone":"4242872280","association_name":"HALA","offers_ebt":"1","offers_market_match":"1","offers_WIC_FMNP":"1","offers_WIC_FVC":"1","website":"www.lacienegafarmersmarket.com","email":"mnpfarmersmarkets@att.net","latitude":"34.038683","longitude":"-118.375157","mm_max":"","mm_start":"","mm_end":"","site_type":"","offers_f5":"1"},{"id":"177","county":"Los Angeles","city":"Long Beach","name":"The Greener Good Farmers' Market WEST","location":"Admiral Kidd Park","address":"2125","street":"Santa Fe Ave","cross_st_1":"W 21st St","cross_st_2":"","zip":"90810","month_open":"Year Round","month_closed":"","days":"Saturday","frequency":"","hour_open":"09:00:00","hour_closed":"14:00:00","manager":"Jorge Rivera","phone":"5624353335","association_name":"HALA","offers_ebt":"1","offers_market_match":"0","offers_WIC_FMNP":"0","offers_WIC_FVC":"0","website":"www.greenergoodlb.org","email":"","latitude":"33.795738","longitude":"-118.216043","mm_max":"","mm_start":"","mm_end":"","site_type":""},{"id":"178","county":"Los Angeles","city":"Los Angeles","name":"Wellington Square Farmers Market","location":"","address":"4394","street":"W. Washington Blvd","cross_st_1":"Washington Blvd","cross_st_2":"Wellington Rd","zip":"90016","month_open":"Year Round","month_closed":"","days":"Sunday","frequency":"","hour_open":"09:00:00","hour_closed":"13:00:00","manager":"Lora Davis, Kathy Lewis","phone":"3233730961","association_name":"HALA","offers_ebt":"1","offers_market_match":"1","offers_WIC_FMNP":"1","offers_WIC_FVC":"0","website":"http://www.wellingtonsquarefarmersmarket.com/","email":"ljd2000@hotmail.com","latitude":"34.039601","longitude":"-118.33505","mm_max":"10","mm_start":"Year Round","mm_end":"","site_type":"","offers_f5":"1"},{"id":"179","county":"Los Angeles","city":"Long Beach","name":"Long Beach Downtown Certified Farmers' Market","location":"City Place Shopping Center (400 Eliot Court, Promenade North)","address":"300","street":"W 3rd St","cross_st_1":"Pacific Ave","cross_st_2":"","zip":"90802","month_open":"Year Round","month_closed":"","days":"Friday","frequency":"","hour_open":"10:00:00","hour_closed":"16:00:00","manager":"Dale Whitney","phone":"5623013202","association_name":"HALA","offers_ebt":"1","offers_market_match":"1","offers_WIC_FMNP":"1","offers_WIC_FVC":"0","website":"http://www.goodveg.org/","email":"","latitude":"33.770477","longitude":"-118.193931","mm_max":"10","mm_start":"Year Round","mm_end":"","site_type":"","offers_f5":"1"},{"id":"180","county":"Los Angeles","city":"Huntington Park","name":"Huntington Park CFM","location":"Salt Lake Park","address":"3401","street":"E Florence Ave","cross_st_1":"Bissell","cross_st_2":"State St","zip":"90255","month_open":"Year Round","month_closed":"","days":"Wednesday","frequency":"","hour_open":"09:30:00","hour_closed":"13:30:00","manager":"Mary Strang","phone":"5622301320","association_name":"HALA","offers_ebt":"1","offers_market_match":"1","offers_WIC_FMNP":"1","offers_WIC_FVC":"0","website":"http://www.hungeractionla.org/marketmatch/","email":"","latitude":"33.9723","longitude":"-118.205677","mm_max":"10","mm_start":"Year Round","mm_end":"","site_type":"","offers_f5":"1"},{"id":"181","county":"Los Angeles","city":"Altadena","name":"Altadena CFM","location":"Loma Alta Park","address":"600","street":"W Palm St","cross_st_1":"Lincoln Ave","cross_st_2":"","zip":"91101","month_open":"Year Round","month_closed":"","days":"Wednesday","frequency":"","hour_open":"15:00:00","hour_closed":"19:00:00","manager":"Elizabeth Bowman","phone":"3105950272","association_name":"HALA","offers_ebt":"1","offers_market_match":"1","offers_WIC_FMNP":"1","offers_WIC_FVC":"0","website":"http://altadenafarmersmarket.com/","email":"hello@altadenafarmersmarket.com","latitude":"34.200712","longitude":"-118.158188","mm_max":"10","mm_start":"Year Round","mm_end":"","site_type":"","offers_f5":"1"},{"id":"182","county":"Los Angeles","city":"Harbor City","name":"Kaiser South Bay Farmers' Market","location":"Kaiser Permanente/ Parkview Building","address":"25825","street":"S Vermont Ave","cross_st_1":"W Anaheim St","cross_st_2":"Pacific Coast Hwy","zip":"90710","month_open":"Year Round","month_closed":"","days":"Wednesday","frequency":"","hour_open":"10:00:00","hour_closed":"19:30:00","manager":"Cynthia Ojeda","phone":"4242872280","association_name":"HALA","offers_ebt":"1","offers_market_match":"0","offers_WIC_FMNP":"1","offers_WIC_FVC":"1","website":"www.lacienegafarmersmarket.com","email":"mnpfarmersmarkets@att.net","latitude":"33.788567","longitude":"-118.29562","mm_max":"10","mm_start":"Year Round","mm_end":"","site_type":"","offers_f5":"1"},{"id":"183","county":"Los Angeles","city":"Pomona","name":"Pomona Valley CFM","location":"N.W. Corner of Garey Ave and Pearl Street","address":"683","street":"N Garey Ave","cross_st_1":"Garey Ave","cross_st_2":"Pearl St","zip":"91767","month_open":"Year Round","month_closed":"","days":"Saturday","frequency":"","hour_open":"07:30:00","hour_closed":"11:30:00","manager":"Harry Brown-Hiegel","phone":"3106210336","association_name":"HALA, Brown-Hiegel Association","offers_ebt":"1","offers_market_match":"0","offers_WIC_FMNP":"1","offers_WIC_FVC":"1","website":"","email":"H.BROWNHIEGEL@ca.rr.com","latitude":"34.0645418","longitude":"-117.7503705","mm_max":"10","mm_start":"Year Round","mm_end":"Year Round","site_type":"","offers_f5":"1"},{"id":"184","county":"Los Angeles","city":"Santa Monica","name":"Santa Monica Pico Farmers' Market","location":"Virginia Ave Park","address":"2200","street":"Virginia Ave","cross_st_1":"Cloverfield Ave","cross_st_2":"","zip":"90404","month_open":"Year Round","month_closed":"","days":"Saturday","frequency":"","hour_open":"08:00:00","hour_closed":"13:00:00","manager":"Ted Galvan","phone":"3104588712","association_name":"HALA, City of Santa Monica","offers_ebt":"1","offers_market_match":"1","offers_WIC_FMNP":"1","offers_WIC_FVC":"0","website":"http://www.smgov.net/portals/farmersmarket/","email":"laura.avery@smgov.net","latitude":"34.0220292","longitude":"-118.4687695","mm_max":"10","mm_start":"Year Round","mm_end":"","site_type":"","offers_f5":"1"},{"id":"185","county":"Los Angeles","city":"Monterey Park","name":"Monterey Park CFM","location":"Monterey Park Bruggemeyer Library parking lot","address":"318","street":"S. Ramona Ave","cross_st_1":"","cross_st_2":"","zip":"91754","month_open":"Year Round","month_closed":"","days":"Friday ","frequency":"","hour_open":"16:00:00","hour_closed":"20:00:00","manager":"Mark Anderson","phone":"3106996134","association_name":"HALA, Sprouts of Promise Foundation","offers_ebt":"1","offers_market_match":"1","offers_WIC_FMNP":"1","offers_WIC_FVC":"0","website":"www.montereyparkfm.com","email":"sproutsofpromise@gmail.com","latitude":"34.059124","longitude":"-118.12479","mm_max":"10","mm_start":"Year Round","mm_end":"","site_type":"","offers_f5":"1"},{"id":"186","county":"Los Angeles","city":"Gardena","name":"Gardena CFM-Hollypark","location":"Hollypark Methodist Church parking lot","address":"13000","street":"S Van Ness Ave","cross_st_1":"132nd St","cross_st_2":"W El Sedundo Blvd","zip":"90249","month_open":"Year Round","month_closed":"","days":"Saturday","frequency":"","hour_open":"08:00:00","hour_closed":"13:00:00","manager":"Kimberly and Ida Edwards","phone":"7604989200","association_name":"HALA/Farmers and Community Services","offers_ebt":"1","offers_market_match":"1","offers_WIC_FMNP":"1","offers_WIC_FVC":"0","website":"","email":"idaedwards@yahoo.com","latitude":"33.914518","longitude":"-118.317526","mm_max":"10","mm_start":"Year Round","mm_end":"","site_type":"","offers_f5":"1"},{"id":"187","county":"Los Angeles","city":"Los Angeles","name":"Adams/Vermont Farmers' Market","location":"St. Agnes Church Parking Lot","address":"1432","street":"W Adams Blvd","cross_st_1":"S Vermont","cross_st_2":"S Catalina","zip":"90007","month_open":"Year Round","month_closed":"","days":"Wednesday","frequency":"","hour_open":"14:00:00","hour_closed":"18:00:00","manager":"Ida M. Edwards","phone":"7604989200","association_name":"HALA/Farmers and Community Services","offers_ebt":"1","offers_market_match":"1","offers_WIC_FMNP":"1","offers_WIC_FVC":"0","website":"","email":"idaedwards@yahoo.com","latitude":"34.033214","longitude":"-118.292887","mm_max":"10","mm_start":"Year Round","mm_end":"","site_type":"","offers_f5":"1"},{"id":"188","county":"Los Angeles","city":"Los Angeles","name":"Mar Vista Farmers' Market","location":"","address":"12200","street":"Grand View","cross_st_1":"S Centinela Ave","cross_st_2":"","zip":"90066","month_open":"Year Round","month_closed":"","days":"Sunday","frequency":"","hour_open":"09:00:00","hour_closed":"14:00:00","manager":"Diana Rodgers","phone":"3108614444","association_name":"HALA/Mar Vista Farmers Association","offers_ebt":"1","offers_market_match":"1","offers_WIC_FMNP":"1","offers_WIC_FVC":"0","website":"http://www.marvistafarmersmarket.org/","email":"","latitude":"34.004629","longitude":"-118.431175","mm_max":"10","mm_start":"Year Round","mm_end":"","site_type":"","offers_f5":"1"},{"id":"189","county":"Los Angeles ","city":"La Puente","name":"Valinda CFM","location":"Rimgrove Park ","address":"747","street":"N Rimgrove Dr","cross_st_1":"Amar Ave","cross_st_2":"","zip":"91744","month_open":"May","month_closed":"October","days":"Thursday","frequency":"","hour_open":"14:00:00","hour_closed":"19:00:00","manager":"Grace Gonzalez or Lilia Rivas","phone":"3232634462","association_name":"HALA/VELA - The Light of the Community","offers_ebt":"1","offers_market_match":"1","offers_WIC_FMNP":"1","offers_WIC_FVC":"0","website":"http://velasfarmersmarkets.org/24612/index.html","email":"grace@velaela.org","latitude":"34.031159","longitude":"-117.920677","mm_max":"10","mm_start":"May","mm_end":"October","site_type":"","offers_f5":"1"},{"id":"190","county":"Los Angeles","city":"Carson","name":"South Bay Pavilion Farmers' Market","location":"South Bay Pavilion Mall","address":"20700","street":"Avalon Blvd","cross_st_1":"Avalon Blvd","cross_st_2":"110 S","zip":"90746","month_open":"Year Round","month_closed":"","days":"Thursday","frequency":"","hour_open":"10:00:00","hour_closed":"15:00:00","manager":"Nick Spano","phone":"3108698979","association_name":"LA City Farm","offers_ebt":"1","offers_market_match":"0","offers_WIC_FMNP":"1","offers_WIC_FVC":"0","website":"http://www.lacityfarm.com/about-city-farm/","email":"","latitude":"33.844589","longitude":"-118.261773","mm_max":"","mm_start":"","mm_end":"","site_type":""},{"id":"191","county":"Los Angeles","city":"Los Angeles","name":"Yamashiro Farmers Market","location":"","address":"1999","street":"N. Sycamore Ave","cross_st_1":"Franklin","cross_st_2":"Sycamore","zip":"90068","month_open":"April","month_closed":"September","days":"Thursday","frequency":"","hour_open":"17:00:00","hour_closed":"21:00:00","manager":"Nick Spano","phone":"3108698979","association_name":"LA City Farm ","offers_ebt":"1","offers_market_match":"0","offers_WIC_FMNP":"1","offers_WIC_FVC":"0","website":"http://www.lacityfarm.com/about-city-farm/","email":"","latitude":"34.1064321","longitude":"-118.3421312","mm_max":"","mm_start":"","mm_end":"","site_type":""},{"id":"192","county":"Los Angeles","city":"Los Angeles","name":"The WALL Food + Flowers + Farmers' Market","location":"","address":"755","street":"Wall St","cross_st_1":"E 7th St","cross_st_2":"E 8th St","zip":"90014","month_open":"Year Round","month_closed":"","days":"Saturday","frequency":"","hour_open":"10:00:00","hour_closed":"15:00:00","manager":"Susan Hillyer","phone":"9495213326","association_name":"LA Flower District","offers_ebt":"0","offers_market_match":"0","offers_WIC_FMNP":"0","offers_WIC_FVC":"0","website":"www.communityevent.org","email":"susan@communityevent.org","latitude":"34.041172","longitude":"-118.249633","mm_max":"","mm_start":"","mm_end":"","site_type":""},{"id":"193","county":"Los Angeles","city":"Long Beach","name":"Bixby Park Farmers' Market","location":"Bixby Park","address":"","street":"Junipero","cross_st_1":"1st St","cross_st_2":"2nd St","zip":"90802","month_open":"Year Round","month_closed":"","days":"Tuesday","frequency":"","hour_open":"15:00:00","hour_closed":"19:00:00","manager":"Lee Ostendorf","phone":"5624499299","association_name":"Local Harvest","offers_ebt":"0","offers_market_match":"0","offers_WIC_FMNP":"0","offers_WIC_FVC":"0","website":"http://www.localharvestfarmersmarkets.com/#!bixby-park/c1g6b","email":"","latitude":"33.765797","longitude":"-118.168148","mm_max":"","mm_start":"","mm_end":"","site_type":""},{"id":"194","county":"Los Angeles","city":"Long Beach","name":"Marine Stadium (Local Harvest) Farmers' Market","location":"Parking Lot at Marina Vista Park & Marine Stadium","address":"","street":"E. Appian Way","cross_st_1":"Nieto Ave","cross_st_2":"","zip":"90803","month_open":"Year Round","month_closed":"","days":"Wednesday","frequency":"","hour_open":"15:00:00","hour_closed":"19:00:00","manager":"Lee Ostendorf","phone":"5624499299","association_name":"Local Harvest","offers_ebt":"0","offers_market_match":"0","offers_WIC_FMNP":"0","offers_WIC_FVC":"0","website":"http://www.localharvestfarmersmarkets.com/#!marine-stadium/cup","email":"","latitude":"33.76371","longitude":"-118.127002","mm_max":"","mm_start":"","mm_end":"","site_type":""},{"id":"195","county":"Los Angeles","city":"San Pedro","name":"San Pedro Farmers' Market","location":"","address":"","street":"6th St","cross_st_1":"Pacific Ave","cross_st_2":"Mesa St ","zip":"90731","month_open":"Year Round","month_closed":"","days":"Friday","frequency":"","hour_open":"09:00:00","hour_closed":"14:00:00","manager":"Lee Ostendorf","phone":"5624499299","association_name":"Local Harvest","offers_ebt":"0","offers_market_match":"0","offers_WIC_FMNP":"0","offers_WIC_FVC":"0","website":"http://www.localharvestfarmersmarkets.com/#!historic-downtown-san-pedro/cxq7","email":"","latitude":"33.8542837","longitude":"-118.3901594","mm_max":"","mm_start":"","mm_end":"","site_type":""},{"id":"196","county":"Los Angeles","city":"Wilmington","name":"Local Harvest CFM Wilmington","location":"","address":"","street":"E L St","cross_st_1":"N Avalon Blvd","cross_st_2":"Marine Ave","zip":"90744","month_open":"Year Round","month_closed":"","days":"Thursday","frequency":"","hour_open":"09:00:00","hour_closed":"13:00:00","manager":"Lee Ostendorf","phone":"5624499299","association_name":"Local Harvest","offers_ebt":"0","offers_market_match":"0","offers_WIC_FMNP":"0","offers_WIC_FVC":"0","website":"http://www.localharvestfarmersmarkets.com/#!heart-of-the-harbor/cz7m","email":"","latitude":"33.7846786","longitude":"-118.2641041","mm_max":"","mm_start":"","mm_end":"","site_type":""},{"id":"197","county":"Los Angeles","city":"Los Angeles","name":"Motor Avenue Farmers' Market","location":"","address":"3376","street":"Motor Ave","cross_st_1":"Motor Ave","cross_st_2":"National Blvd","zip":"90034","month_open":"Year Round","month_closed":"","days":"Sunday","frequency":"","hour_open":"09:00:00","hour_closed":"14:00:00","manager":"Evelin Tamayo","phone":"3102029002","association_name":"Motor Ave Improvement Association ","offers_ebt":"1","offers_market_match":"0","offers_WIC_FMNP":"1","offers_WIC_FVC":"0","website":"http://www.motoravenuemarket.com/","email":"market@motorassociation.org","latitude":"34.02953","longitude":"-118.410608","mm_max":"","mm_start":"","mm_end":"","site_type":""},{"id":"198","county":"Los Angeles","city":"Highland Park","name":"Old L.A. CFM","location":"Metro Gold Line Highland Park Station","address":"","street":"N Figueroa St","cross_st_1":"","cross_st_2":"N Ave 58","zip":"90042","month_open":"Year Round","month_closed":"","days":"Tuesday","frequency":"","hour_open":"15:00:00","hour_closed":"19:00:00","manager":"Christopher Nyerges","phone":"6267913217","association_name":"North Figueroa Association","offers_ebt":"1","offers_market_match":"0","offers_WIC_FMNP":"1","offers_WIC_FVC":"0","website":"https://www.facebook.com/HighlandParkOldLaCertifiedFarmersMarket","email":"christopher_nyerges@yahoo.com","latitude":"34.110151","longitude":"-118.191919","mm_max":"","mm_start":"","mm_end":"","site_type":""},{"id":"199","county":"Los Angeles","city":"Van Nuys","name":"Encino Farmer Market","location":"","address":"17400","street":"Victory Blvd","cross_st_1":"","cross_st_2":"","zip":"91406","month_open":"Year Round","month_closed":"","days":"Sunday","frequency":"","hour_open":"08:00:00","hour_closed":"13:00:00","manager":"Carole Gallegos","phone":"8187086611","association_name":"One Generation","offers_ebt":"0","offers_market_match":"0","offers_WIC_FMNP":"1","offers_WIC_FVC":"0","website":"http://www.onegeneration.org/encino-farmers-market/","email":"cgallegos@onegeneration.org","latitude":"34.1866143","longitude":"-118.5120399","mm_max":"","mm_start":"","mm_end":"","site_type":""},{"id":"200","county":"Los Angeles","city":"Pasadena","name":"Pasadena Villa Parke CFM","location":"Villa Parke Center","address":"363","street":"E Villa St","cross_st_1":"Garfield Ave","cross_st_2":"","zip":"91101","month_open":"Year Round","month_closed":"","days":"Tuesday","frequency":"","hour_open":"08:30:00","hour_closed":"12:30:00","manager":"Gretchen Sterling","phone":"6264490179","association_name":"Pasadena Markets","offers_ebt":"1","offers_market_match":"0","offers_WIC_FMNP":"1","offers_WIC_FVC":"0","website":"http://www.pasadenafarmersmarket.org/pasadena_farmers_market_villa_parke.html","email":"pasadenacfms@yahoo.com","latitude":"34.1541922","longitude":"-118.1430501","mm_max":"","mm_start":"","mm_end":"","site_type":""},{"id":"201","county":"Los Angeles","city":"Pasadena","name":"Pasadena Victory Park FM","location":"","address":"2925","street":"N Sierra Madre Blvd","cross_st_1":"Sierra Madre Blvd","cross_st_2":"Paloma St","zip":"91107","month_open":"Year Round","month_closed":"","days":"Saturday","frequency":"","hour_open":"08:30:00","hour_closed":"12:30:00","manager":"Gretchen Sterling","phone":"6264490179","association_name":"Pasadena Markets","offers_ebt":"1","offers_market_match":"0","offers_WIC_FMNP":"1","offers_WIC_FVC":"0","website":"http://www.pasadenafarmersmarket.org/pasadena_farmers_market_victory_park.html","email":"pasadenacfms@yahoo.com","latitude":"34.1543599","longitude":"-118.0939366","mm_max":"","mm_start":"","mm_end":"","site_type":""},{"id":"202","county":"Los Angeles","city":"Temple City","name":"Temple City CFM","location":"City Hall Complex","address":"9701","street":"E Las Tunas Dr","cross_st_1":"Kaufman","cross_st_2":"","zip":"91780","month_open":"Year Round","month_closed":"","days":"Sunday","frequency":"","hour_open":"08:30:00","hour_closed":"12:30:00","manager":"Gretchen Sterling","phone":"6264490179","association_name":"Pasadena Markets","offers_ebt":"1","offers_market_match":"0","offers_WIC_FMNP":"1","offers_WIC_FVC":"0","website":"http://www.ci.temple-city.ca.us/287/Farmers-Market","email":"pasadenacfms@yahoo.com","latitude":"34.10769","longitude":"-118.057863","mm_max":"","mm_start":"","mm_end":"","site_type":""},{"id":"203","county":"Los Angeles","city":"Lancaster","name":"Lancaster Farmers' Market","location":"","address":"758","street":"W Lancaster Blvd","cross_st_1":"Date Ave","cross_st_2":"Fig Ave","zip":"93534","month_open":"Year Round","month_closed":"","days":"Thursday","frequency":"","hour_open":"16:00:00","hour_closed":"21:00:00","manager":"Evelyn Lopez","phone":"8185918161","association_name":"Raw Inspiration","offers_ebt":"1","offers_market_match":"0","offers_WIC_FMNP":"1","offers_WIC_FVC":"0","website":"http://www.rawinspiration.org/","email":"","latitude":"34.697811","longitude":"-118.144036","mm_max":"","mm_start":"","mm_end":"","site_type":""},{"id":"204","county":"Los Angeles","city":"Los Angeles","name":"Downtown LA CFM/Pershing","location":"Pershing Square","address":"532","street":"S Olive St","cross_st_1":"W 5th St","cross_st_2":"W 6th St","zip":"90013","month_open":"Year Round","month_closed":"","days":"Wednesday","frequency":"","hour_open":"11:00:00","hour_closed":"14:00:00","manager":"Jackson Spears","phone":"8185918161","association_name":"Raw Inspiration","offers_ebt":"0","offers_market_match":"0","offers_WIC_FMNP":"1","offers_WIC_FVC":"0","website":"http://www.rawinspiration.org/","email":"info@rawinspiration.org","latitude":"34.049353","longitude":"-118.252908","mm_max":"","mm_start":"","mm_end":"","site_type":""},{"id":"205","county":"Los Angeles","city":"Los Angeles","name":"Downtown L.A. - 7th & Figueroa CFM","location":"","address":"735","street":"S Figueroa St","cross_st_1":"W 7th St","cross_st_2":"W 8th St","zip":"90017","month_open":"Year Round","month_closed":"","days":"Thursday","frequency":"","hour_open":"09:00:00","hour_closed":"14:00:00","manager":"Fernando Oxa","phone":"8185918161","association_name":"Raw Inspiration","offers_ebt":"1","offers_market_match":"0","offers_WIC_FMNP":"1","offers_WIC_FVC":"0","website":"http://www.rawinspiration.org/","email":"info@rawinspiration.org","latitude":"34.049125","longitude":"-118.260714","mm_max":"","mm_start":"","mm_end":"","site_type":""},{"id":"206","county":"Los Angeles","city":"Los Angeles","name":"Bank of America Plaza Farmers' Market (CFM)","location":"","address":"333","street":"S Hope Street","cross_st_1":"W 3rd St","cross_st_2":"W 4th St","zip":"90071","month_open":"Year Round","month_closed":"","days":"Friday","frequency":"","hour_open":"10:00:00","hour_closed":"14:00:00","manager":"Fernando Oxa & Brett Potter","phone":"8185918161","association_name":"Raw Inspiration","offers_ebt":"0","offers_market_match":"0","offers_WIC_FMNP":"1","offers_WIC_FVC":"0","website":"http://www.rawinspiration.org/","email":"info@rawinspiration.org","latitude":"34.053765","longitude":"-118.253278","mm_max":"","mm_start":"","mm_end":"","site_type":""},{"id":"207","county":"Los Angeles","city":"Downey","name":"Downey CFM","location":"","address":"11039","street":"Downey Ave","cross_st_1":"","cross_st_2":"","zip":"90241","month_open":"Year Round","month_closed":"","days":"Saturday","frequency":"","hour_open":"09:00:00","hour_closed":"13:00:00","manager":"Jackson Spears","phone":"8185918161","association_name":"Raw Inspiration","offers_ebt":"0","offers_market_match":"0","offers_WIC_FMNP":"1","offers_WIC_FVC":"0","website":"http://www.downeyca.org/thingstodo/market.asp","email":"info@RAWINSPIRATION.ORG","latitude":"33.941543","longitude":"-118.13345","mm_max":"","mm_start":"","mm_end":"","site_type":""},{"id":"208","county":"Los Angeles","city":"Calabasas","name":"Calabasas CFM","location":"","address":"23504","street":"Calabasas Rd","cross_st_1":"Calabasas Rd","cross_st_2":"El Canon Ave","zip":"91302","month_open":"Year Round","month_closed":"","days":"Saturday","frequency":"","hour_open":"08:00:00","hour_closed":"13:00:00","manager":"Bryn Pritchard/ Shannon Quamme","phone":"8185918161","association_name":"Raw inspiration","offers_ebt":"0","offers_market_match":"0","offers_WIC_FMNP":"1","offers_WIC_FVC":"0","website":"info@rawinspiration.org","email":"","latitude":"34.157363","longitude":"-118.638779","mm_max":"","mm_start":"","mm_end":"","site_type":""},{"id":"209","county":"Los Angeles","city":"La Canada","name":"La Canada/Flintridge CFM","location":"","address":"1346","street":" Foothill Blvd","cross_st_1":"Lasheart Dr","cross_st_2":"","zip":"91011","month_open":"Year Round","month_closed":"","days":"Saturday","frequency":"","hour_open":"09:00:00","hour_closed":"13:00:00","manager":"Carol De Los Santos","phone":"8185918161","association_name":"Raw Inspiration","offers_ebt":"0","offers_market_match":"0","offers_WIC_FMNP":"1","offers_WIC_FVC":"0","website":"http://www.lacanadaflintridge.com/events-page/farmers-market.html","email":"info@RAWINSPIRATION.ORG","latitude":"34.207911","longitude":"-118.207715","mm_max":"","mm_start":"","mm_end":"","site_type":""},{"id":"210","county":"Los Angeles","city":"Los Angeles","name":"Melrose Place CFM","location":"","address":"8400","street":"Melrose Ave","cross_st_1":"Melrose Pl","cross_st_2":"N La Cienega Blvd","zip":"90069","month_open":"Year Round","month_closed":"","days":"Sunday","frequency":"","hour_open":"10:00:00","hour_closed":"14:00:00","manager":"Brett Potter","phone":"8185918161","association_name":"Raw Inspiration","offers_ebt":"0","offers_market_match":"0","offers_WIC_FMNP":"1","offers_WIC_FVC":"0","website":"http://www.ccfm.com/ccfm/melrose-place-farmers-market","email":"info@RAWINSPIRATION.ORG","latitude":"34.083453","longitude":"-118.373843","mm_max":"","mm_start":"","mm_end":"","site_type":""},{"id":"211","county":"Los Angeles","city":"Century City","name":"Century City CFM","location":"","address":"1800","street":"Ave of the Stars","cross_st_1":"Santa Monica Blvd","cross_st_2":"Constellation Blvd","zip":"90067","month_open":"Year Round","month_closed":"","days":"Thursday","frequency":"","hour_open":"10:00:00","hour_closed":"14:00:00","manager":"Linda Gallardo/ Shannon Quamme","phone":"8185918161","association_name":"Raw Inspiration","offers_ebt":"0","offers_market_match":"0","offers_WIC_FMNP":"1","offers_WIC_FVC":"0","website":"https://www.facebook.com/CenturyCityFM","email":"info@RAWINSPIRATION.ORG","latitude":"34.061262","longitude":"-118.417342","mm_max":"","mm_start":"","mm_end":"","site_type":""},{"id":"212","county":"Los Angeles","city":"Pacific Palisades","name":"Pacific Palisades CFM","location":"","address":"1037","street":"Swarthmore Ave","cross_st_1":"","cross_st_2":"","zip":"90272","month_open":"Year Round","month_closed":"","days":"Sunday","frequency":"","hour_open":"08:00:00","hour_closed":"13:00:00","manager":"Evelyn Lopez","phone":"8185918161","association_name":"Raw Inspiration","offers_ebt":"0","offers_market_match":"0","offers_WIC_FMNP":"1","offers_WIC_FVC":"0","website":"https://www.facebook.com/PacificPalisadesFM","email":"info@RAWINSPIRATION.ORG","latitude":"34.0484475","longitude":"-118.5250541","mm_max":"","mm_start":"","mm_end":"","site_type":""},{"id":"213","county":"Los Angeles","city":"Sherman Oaks","name":"Westfield Sherman Oaks CFM- Tuesday","location":"Parking lot off Woodman Ave","address":"14006","street":"Riverside Dr","cross_st_1":"Woodman Ave","cross_st_2":"","zip":"91423","month_open":"Year Round","month_closed":"","days":"Tuesday","frequency":"","hour_open":"15:00:00","hour_closed":"20:00:00","manager":"Bryn Prichard","phone":"8185918161","association_name":"Raw Inspiration","offers_ebt":"0","offers_market_match":"0","offers_WIC_FMNP":"1","offers_WIC_FVC":"0","website":"","email":"info@RAWINSPIRATION.ORG","latitude":"34.1565082","longitude":"-118.4367773","mm_max":"","mm_start":"","mm_end":"","site_type":""},{"id":"214","county":"Los Angeles","city":"Los Angeles","name":"Glassell Park Farmers' Market","location":"Goodwill Industries","address":"3150","street":"N San Fernando Rd","cross_st_1":"Andrita St","cross_st_2":"","zip":"90065","month_open":"Year Round","month_closed":"","days":"Saturday","frequency":"","hour_open":"10:00:00","hour_closed":"15:00:00","manager":"Alejandro Corona","phone":"3234633171","association_name":"SEE-LA","offers_ebt":"1","offers_market_match":"0","offers_WIC_FMNP":"1","offers_WIC_FVC":"0","website":" www.seela.org","email":"","latitude":"34.115337","longitude":"-118.248103","mm_max":"","mm_start":"","mm_end":"","site_type":""},{"id":"215","county":"Los Angeles","city":"Los Angeles","name":"The CFM @ The Shrine","location":"","address":"500","street":"Hoover","cross_st_1":"Hoover ","cross_st_2":"Jefferson","zip":"90007","month_open":"January","month_closed":"June","days":"Tuesday","frequency":"","hour_open":"09:00:00","hour_closed":"17:00:00","manager":"Helen Lee/Chase Mosley","phone":"3232516950","association_name":"SEE-LA","offers_ebt":"1","offers_market_match":"0","offers_WIC_FMNP":"0","offers_WIC_FVC":"0","website":"http://www.seela.org/","email":"","latitude":"34.0236624","longitude":"-118.2840586","mm_max":"","mm_start":"","mm_end":"","site_type":""},{"id":"216","county":"Los Angeles","city":"Los Angeles","name":"Barnsdall Medical","location":"Barnsdall Art Park Lower Level Parking Lot","address":"4800","street":"Hollywood Blvd","cross_st_1":"N Berendo St","cross_st_2":"Lower Rd","zip":"90027","month_open":"January","month_closed":"September","days":"Monday","frequency":"","hour_open":"12:00:00","hour_closed":"18:00:00","manager":"Ariell Ilunga/Jared Call","phone":"3234633171","association_name":"SEELA","offers_ebt":"1","offers_market_match":"1","offers_WIC_FMNP":"1","offers_WIC_FVC":"1","website":"www.seela.org","email":"","latitude":"34.101768","longitude":"-118.294366","mm_max":"10","mm_start":"June","mm_end":"September","site_type":"","offers_f5":"1"},{"id":"217","county":"Los Angeles","city":"Los Angeles","name":"Central Ave Farmers' Market CFM","location":"Central Ave Constituent Service Center","address":"4301","street":"Central Ave ","cross_st_1":"E 43rd Pl","cross_st_2":"E 43rd St","zip":"90011","month_open":"Year Round","month_closed":"","days":"Thursday","frequency":"","hour_open":"10:00:00","hour_closed":"15:00:00","manager":"Lupe Mejia (Interim)","phone":"3234633171","association_name":"SEELA","offers_ebt":"1","offers_market_match":"1","offers_WIC_FMNP":"1","offers_WIC_FVC":"1","website":"www.seela.org","email":"","latitude":"34.005847","longitude":"-118.256745","mm_max":"10","mm_start":"Year Round","mm_end":"","site_type":"","offers_f5":"1"},{"id":"218","county":"Los Angeles","city":"Los Angeles","name":"Baldwin Hills Crenshaw Farmers' Market","location":"Baldwin Hills Crenshaw Plaza ","address":"3650","street":"Martin Luther King Jr. Blvd","cross_st_1":"Crenshaw Blvd","cross_st_2":"","zip":"90008","month_open":"Year Round","month_closed":"","days":"Saturday","frequency":"","hour_open":"10:00:00","hour_closed":"15:00:00","manager":"Marie-Alise de Marco","phone":"3234633171","association_name":"SEELA","offers_ebt":"1","offers_market_match":"1","offers_WIC_FMNP":"1","offers_WIC_FVC":"1","website":"www.seela.org","email":"","latitude":"34.010821","longitude":"-118.336341","mm_max":"10","mm_start":"Year Round","mm_end":"","site_type":"","offers_f5":"1"},{"id":"219","county":"Los Angeles","city":"Los Angeles","name":"Baldwin La Brea Farmers' Market","location":"Parking lot of Baldwin Hills Shopping Mall","address":"3601","street":"S La Brea Ave","cross_st_1":"Rodeo Rd","cross_st_2":"S Sycamore Ave","zip":"90017","month_open":"Year Round","month_closed":"","days":"Saturday","frequency":"","hour_open":"09:00:00","hour_closed":"14:00:00","manager":"","phone":"8186996204","association_name":"Enriched Farms","offers_ebt":"0","offers_market_match":"0","offers_WIC_FMNP":"0","offers_WIC_FVC":"0","website":"http://www.enrichedfarms.com/","email":"enrichedfarms@gmail.com","latitude":"34.020349","longitude":"-118.356635","mm_max":"","mm_start":"Year Round","mm_end":"","site_type":""},{"id":"220","county":"Los Angeles","city":"Los Angeles","name":"Los Feliz Village CFM","location":"","address":"1825","street":"N Vermont Ave","cross_st_1":"Russell Ave","cross_st_2":"Melbourne Ave","zip":"90027","month_open":"Year Round","month_closed":"","days":"Sunday","frequency":"","hour_open":"09:00:00","hour_closed":"14:00:00","manager":"Helen Lee","phone":"3232729171","association_name":"SEELA","offers_ebt":"0","offers_market_match":"0","offers_WIC_FMNP":"0","offers_WIC_FVC":"0","website":"http://www.see-la.org/","email":"","latitude":"34.104591","longitude":"-118.292121","mm_max":"","mm_start":"","mm_end":"","site_type":""},{"id":"221","county":"Los Angeles","city":"Los Angeles","name":"Watts Healthy Farmers' Market","location":"Ted Watkins Memorial Park","address":"1335","street":"East 103rd Street","cross_st_1":"Central Ave","cross_st_2":"","zip":"90002","month_open":"Year Round","month_closed":"","days":"Saturday","frequency":"","hour_open":"10:00:00","hour_closed":"14:00:00","manager":"Javier Arteaga","phone":"3234633171","association_name":"SEELA","offers_ebt":"1","offers_market_match":"1","offers_WIC_FMNP":"1","offers_WIC_FVC":"1","website":"http://www.see-la.org/","email":"","latitude":"33.9444278","longitude":"-118.2513901","mm_max":"10","mm_start":"Year Round","mm_end":"","site_type":"","offers_f5":"1"},{"id":"222","county":"Los Angeles","city":"Los Angeles","name":"Hollywood Farmers' Market (CFM)","location":"","address":"1600","street":"Ivar Ave","cross_st_1":"Selma Ave","cross_st_2":"Sunset Blvd","zip":"90028","month_open":"Year Round","month_closed":"","days":"Sunday","frequency":"","hour_open":"08:00:00","hour_closed":"13:00:00","manager":"Elizabeth Bowman/Alexandra Agajanian","phone":"3234633171","association_name":"SEELA","offers_ebt":"1","offers_market_match":"0","offers_WIC_FMNP":"1","offers_WIC_FVC":"0","website":"www.seela.org","email":"alexandra@SEE-LA.ORG","latitude":"34.099836","longitude":"-118.328181","mm_max":"","mm_start":"","mm_end":"","site_type":""},{"id":"223","county":"Los Angeles","city":"Los Angeles","name":"Atwater Village Farmers' Market","location":"","address":"3250","street":"Glendale Blvd","cross_st_1":"Larga Ave","cross_st_2":"Brunswick Ave","zip":"90039","month_open":"Year Round","month_closed":"","days":"Sunday","frequency":"","hour_open":"10:00:00","hour_closed":"14:00:00","manager":"Gina Quattrochi","phone":"3234633171","association_name":"SEELA","offers_ebt":"1","offers_market_match":"0","offers_WIC_FMNP":"1","offers_WIC_FVC":"1","website":"www.seela.org","email":"","latitude":"34.118387","longitude":"-118.260219","mm_max":"","mm_start":"","mm_end":"","site_type":""},{"id":"224","county":"Los Angeles","city":"Los Angeles","name":"Echo Park Farmers' Market","location":"Parking lot #663","address":"","street":"Logan St","cross_st_1":"Sunset Blvd","cross_st_2":"","zip":"90026","month_open":"Year Round","month_closed":"","days":"Friday","frequency":"","hour_open":"15:00:00","hour_closed":"19:30:00","manager":"Javier Arteaga","phone":"3234633171","association_name":"SEELA","offers_ebt":"1","offers_market_match":"1","offers_WIC_FMNP":"1","offers_WIC_FVC":"1","website":"www.seela.org","email":"","latitude":"34.075728","longitude":"-118.259389","mm_max":"10","mm_start":"Year Round","mm_end":"","site_type":"","offers_f5":"1"},{"id":"225","county":"Los Angeles","city":"South Pasadena","name":"South Pasadena Farmers' Market","location":"","address":"913","street":"Meridian Ave","cross_st_1":"Meridian Ave","cross_st_2":"El Centro","zip":"91030","month_open":"Year Round","month_closed":"","days":"Thursday","frequency":"","hour_open":"16:00:00","hour_closed":"20:00:00","manager":"Carole Gallegos","phone":"6264032820","association_name":"South Pasadena Chamber of Commerce","offers_ebt":"1","offers_market_match":"0","offers_WIC_FMNP":"1","offers_WIC_FVC":"0","website":"http://southpasadenafarmersmarket.org/","email":"carole@southpasadenafarmersmarket.org","latitude":"34.1108347","longitude":"-118.1573678","mm_max":"","mm_start":"","mm_end":"","site_type":""},{"id":"226","county":"Los Angeles","city":"Panorama City","name":"Kaiser Permanente Panorama City CFM","location":"Kaiser Permanente/ North 3 Building","address":"13652","street":"Cantera St","cross_st_1":"","cross_st_2":"","zip":"91402","month_open":"Year Round","month_closed":"","days":"Wednesday","frequency":"","hour_open":"09:00:00","hour_closed":"13:00:00","manager":"Anne R. Epstein","phone":"8187663686","association_name":"Southland Farmers Market Association","offers_ebt":"0","offers_market_match":"0","offers_WIC_FMNP":"1","offers_WIC_FVC":"0","website":"","email":"awabbit@pacbell.net","latitude":"34.218814","longitude":"-118.430027","mm_max":"","mm_start":"","mm_end":"","site_type":""},{"id":"227","county":"Los Angeles","city":"Woodland Hills","name":"Kaiser Permanante Woodland Hills CFM","location":"Kaiser Permanente- In the plaza between entrances 3 and 4","address":"5601","street":"De Soto Ave","cross_st_1":"","cross_st_2":"","zip":"91367","month_open":"Year Round","month_closed":"","days":"Thursday","frequency":"","hour_open":"09:00:00","hour_closed":"14:30:00","manager":"Julie Orr / Anne R Epstein","phone":"8187663686","association_name":"Southland Farmers Market Association","offers_ebt":"1","offers_market_match":"0","offers_WIC_FMNP":"1","offers_WIC_FVC":"0","website":"","email":"awabbit@pacbell.net","latitude":"34.170993","longitude":"-118.589741","mm_max":"","mm_start":"","mm_end":"","site_type":""},{"id":"228","county":"Los Angeles","city":"Playa Vista","name":"Playa Vista CFM - Sat","location":"","address":"6400","street":"Seabluff Dr","cross_st_1":"","cross_st_2":"Discovery Creek","zip":"90094","month_open":"Year Round","month_closed":"","days":"Saturday","frequency":"","hour_open":"09:00:00","hour_closed":"14:00:00","manager":"Mark Anderson","phone":"4246457211","association_name":"Sprouts of Promise Foundation","offers_ebt":"0","offers_market_match":"0","offers_WIC_FMNP":"1","offers_WIC_FVC":"0","website":"http://www.playavistafm.com/","email":"sproutsofpromise@gmail.com","latitude":"33.972012","longitude":"-118.421888","mm_max":"","mm_start":"","mm_end":"","site_type":""},{"id":"229","county":"Los Angeles","city":"Studio City","name":"Studio City Farmers' Market","location":"","address":"12065","street":"Ventura Place","cross_st_1":"Laurel Canyon Blvd","cross_st_2":"Radford Ave","zip":"91604","month_open":"Year Round","month_closed":"","days":"Sunday","frequency":"","hour_open":"08:00:00","hour_closed":"14:00:00","manager":"Kathy Gold","phone":"8186557744","association_name":"Studio City Farmers Market","offers_ebt":"1","offers_market_match":"0","offers_WIC_FMNP":"1","offers_WIC_FVC":"0","website":"http://www.studiocityfarmersmarket.com/HOME.html","email":"manager@studiocityfarmersmarket.com","latitude":"34.1441299","longitude":"-118.3936911","mm_max":"","mm_start":"","mm_end":"","site_type":""},{"id":"230","county":"Los Angeles","city":"Los Angeles","name":"East Hollywood CFM","location":"","address":"5448","street":"Hollywood Blvd","cross_st_1":"Western Ave","cross_st_2":"","zip":"90027","month_open":"Year Round","month_closed":"","days":"Thursday","frequency":"","hour_open":"15:30:00","hour_closed":"19:30:00","manager":"Brandie Gordon","phone":"3234682555","association_name":"Thai Community Development Center","offers_ebt":"1","offers_market_match":"1","offers_WIC_FMNP":"1","offers_WIC_FVC":"0","website":"http://thaicdc.org/proj/east-hollywood-farmers-market/","email":"bo@thaicdc.org","latitude":"34.101804","longitude":"-118.308071","mm_max":"10","mm_start":"Year Round","mm_end":"","site_type":"","offers_f5":"1"},{"id":"231","county":"Los Angeles","city":"Claremont","name":"Claremont Farmers' & Artisans' Market","location":"","address":"","street":"","cross_st_1":"Indian Hill Blvd","cross_st_2":"2nd St","zip":"91711","month_open":"Year Round","month_closed":"","days":"Sunday","frequency":"","hour_open":"08:00:00","hour_closed":"13:00:00","manager":"Oscar De Leon","phone":"7143453087","association_name":"The Claremont Forum","offers_ebt":"0","offers_market_match":"0","offers_WIC_FMNP":"1","offers_WIC_FVC":"0","website":"http://www.thevillageclaremont.com/market.html","email":"oscarxicara@gmail.COM","latitude":"34.095881","longitude":"-117.719293","mm_max":"","mm_start":"","mm_end":"","site_type":""},{"id":"232","county":"Los Angeles","city":"Los Angeles","name":"East Los Angeles Farmers' Market (Saturday)","location":"East Los Angeles Civic Center","address":"4801","street":"E 3rd St ","cross_st_1":"Civic Center Way","cross_st_2":"","zip":"90022","month_open":"Year Round","month_closed":"","days":"Saturday","frequency":"","hour_open":"09:00:00","hour_closed":"14:00:00","manager":"Grace Gonzalez/Lilia Rivas","phone":"3232634462","association_name":"VELA - The Light of the Community","offers_ebt":"1","offers_market_match":"1","offers_WIC_FMNP":"1","offers_WIC_FVC":"1","website":"http://www.hungeractionla.org/marketmatch/","email":"info@velaela.org; logistic @ velaela.org","latitude":"34.034038","longitude":"-118.160586","mm_max":"10","mm_start":"Year Round","mm_end":"","site_type":"","offers_f5":"1"},{"id":"233","county":"Los Angeles","city":"Santa Clarita","name":"Santa Clarita CFM","location":"College of the Canyons Parking Lot #8","address":"26455","street":"Rockwell Canyon Rd","cross_st_1":"Valencia Blvd","cross_st_2":"","zip":"91355","month_open":"Year Round","month_closed":"","days":"Sunday","frequency":"","hour_open":"08:30:00","hour_closed":"12:00:00","manager":"Karen Wetzel Schott","phone":"8055296266","association_name":"Ventura County CFM","offers_ebt":"1","offers_market_match":"0","offers_WIC_FMNP":"1","offers_WIC_FVC":"0","website":"http://vccfarmersmarkets.com/santa-clarita/","email":"vccfm@msn.com","latitude":"34.4043507","longitude":"-118.5682927","mm_max":"","mm_start":"","mm_end":"","site_type":""},{"id":"234","county":"Los Angeles","city":"Castaic","name":"Senior Produce Markets","location":"","address":"28060","street":"Hasley Canyon Rd #140","cross_st_1":"The Old Rd","cross_st_2":"","zip":"91384","month_open":"September","month_closed":"December","days":"Tuesday","frequency":"","hour_open":"15:00:00","hour_closed":"19:00:00","manager":"Patrice Powell","phone":"8054799699","association_name":"","offers_ebt":"0","offers_market_match":"0","offers_WIC_FMNP":"0","offers_WIC_FVC":"0","website":"","email":"","latitude":"34.456191","longitude":"-118.616482","mm_max":"","mm_start":"","mm_end":"","site_type":""},{"id":"235","county":"Los Angeles","city":"Hawthorne","name":"Hawthorne/Del Aire Farmers' Market","location":"DaVinci Charter School parking lot","address":"13530","street":"S Aviation Blvd","cross_st_1":"W 138th St","cross_st_2":"W 135th St","zip":"90250","month_open":"Janurary","month_closed":"March","days":"Saturday","frequency":"","hour_open":"09:00:00","hour_closed":"13:00:00","manager":"Susan Hillyer","phone":"3105317111","association_name":"","offers_ebt":"0","offers_market_match":"0","offers_WIC_FMNP":"0","offers_WIC_FVC":"0","website":"https://www.facebook.com/pages/Hawthorne-Del-Aire-Certified-Farmers-Market/175229364016","email":"","latitude":"33.908956","longitude":"-118.37827","mm_max":"","mm_start":"","mm_end":"","site_type":""},{"id":"236","county":"Los Angeles","city":"La Verne","name":"La Verne Farmers' Market","location":"","address":"","street":"","cross_st_1":"D St","cross_st_2":"Bonita Ave","zip":"91750","month_open":"April","month_closed":"August","days":"Thursday","frequency":"","hour_open":"17:00:00","hour_closed":"21:00:00","manager":"Jerry Diaz","phone":"8664403374","association_name":"","offers_ebt":"0","offers_market_match":"0","offers_WIC_FMNP":"0","offers_WIC_FVC":"0","website":"","email":"","latitude":"34.101558","longitude":"-117.769795","mm_max":"","mm_start":"","mm_end":"","site_type":""},{"id":"237","county":"Los Angeles","city":"Los Angeles","name":"West LA Certified Farmers' Market","location":"Behind Public Library","address":"1600","street":"Perdue Ave","cross_st_1":"Santa Monica Blvd","cross_st_2":"","zip":"90025","month_open":"Year Round","month_closed":"","days":"Sunday","frequency":"","hour_open":"09:00:00","hour_closed":"14:00:00","manager":"Steve Whipple","phone":"3104302919","association_name":"","offers_ebt":"0","offers_market_match":"0","offers_WIC_FMNP":"0","offers_WIC_FVC":"0","website":"http://www.westlafarmersmarket.info/","email":"","latitude":"34.045815","longitude":"-118.449976","mm_max":"","mm_start":"","mm_end":"","site_type":""},{"id":"238","county":"Los Angeles","city":"Los Angeles","name":"Westchester Park CFM","location":"Westchester Park, across from Otis College","address":"7000","street":"W. Manchester Ave","cross_st_1":"Lincoln Blvd","cross_st_2":"La Tijera Blvd","zip":"90045","month_open":"Year Round","month_closed":"","days":"Wednesday","frequency":"","hour_open":"08:30:00","hour_closed":"13:30:00","manager":"Cynthia Rogers","phone":"","association_name":"","offers_ebt":"1","offers_market_match":"0","offers_WIC_FMNP":"0","offers_WIC_FVC":"0","website":"http://westchesterfarmersmarket.com/","email":"","latitude":"33.956833","longitude":"-118.415823","mm_max":"","mm_start":"","mm_end":"","site_type":""},{"id":"239","county":"Los Angeles","city":"Los Angeles","name":"Silver Lake CFM","location":"","address":"1500","street":"Griffith Park Blvd","cross_st_1":"Sunset Blvd","cross_st_2":"Edgecliff Dr","zip":"90026","month_open":"Year Round","month_closed":"","days":"Saturday","frequency":"","hour_open":"08:00:00","hour_closed":"13:30:00","manager":"Edwin Gomez","phone":"2134844002","association_name":"","offers_ebt":"1","offers_market_match":"0","offers_WIC_FMNP":"0","offers_WIC_FVC":"0","website":"","email":"","latitude":"34.0904111","longitude":"-118.2779481","mm_max":"","mm_start":"","mm_end":"","site_type":""},{"id":"240","county":"Los Angeles","city":"Los Angeles","name":"Boyle Heights Farmers Market","location":"","address":"100","street":"Bailey","cross_st_1":"1st St","cross_st_2":"Boyle Ave","zip":"90033","month_open":"January","month_closed":"December","days":"Friday, Sunday","frequency":"","hour_open":"15:00:00","hour_closed":"21:00:00","manager":"Antonia Juarez","phone":"9512244164","association_name":"","offers_ebt":"0","offers_market_match":"0","offers_WIC_FMNP":"0","offers_WIC_FVC":"0","website":"https://www.facebook.com/pages/Boyle-Heights-Farmers-Market/308825742488228","email":"","latitude":"34.047494","longitude":"-118.219855","mm_max":"","mm_start":"","mm_end":"","site_type":""},{"id":"241","county":"Los Angeles","city":"Malibu","name":"Malibu Farmers' Market","location":"","address":"23525","street":"Civic Center Way","cross_st_1":"Webb Way","cross_st_2":"PCH","zip":"90265","month_open":"Year Round","month_closed":"","days":"Sunday","frequency":"","hour_open":"10:00:00","hour_closed":"15:00:00","manager":"Debra Bianco","phone":"3104284262","association_name":"","offers_ebt":"0","offers_market_match":"0","offers_WIC_FMNP":"0","offers_WIC_FVC":"0","website":"","email":"","latitude":"34.0368387","longitude":"-118.689072","mm_max":"","mm_start":"","mm_end":"","site_type":""},{"id":"242","county":"Los Angeles","city":"Manhattan Beach","name":"Manhattan Beach CFM","location":"","address":"","street":"13th St","cross_st_1":"Valley St","cross_st_2":"Morningside St","zip":"90266","month_open":"Year Round","month_closed":"","days":"Tuesday","frequency":"","hour_open":"11:00:00","hour_closed":"17:00:00","manager":"Mark Anderson","phone":"3103799901","association_name":"","offers_ebt":"0","offers_market_match":"0","offers_WIC_FMNP":"1","offers_WIC_FVC":"0","website":"http://downtownmanhattanbeach.com/manhattan-beach-farmers-market/","email":"","latitude":"33.8863622","longitude":"-118.4091968","mm_max":"","mm_start":"","mm_end":"","site_type":""},{"id":"243","county":"Los Angeles","city":"Monrovia","name":"Monrovia Farmers Market - Sunday","location":"","address":"","street":"Lime Ave","cross_st_1":"Myrtle Ave","cross_st_2":"","zip":"91017","month_open":"Year Round","month_closed":"","days":"Sunday","frequency":"","hour_open":"09:00:00","hour_closed":"14:00:00","manager":"Jerry Diaz","phone":"8664403374","association_name":"","offers_ebt":"0","offers_market_match":"0","offers_WIC_FMNP":"0","offers_WIC_FVC":"0","website":"","email":"","latitude":"34.1480711","longitude":"-118.0009791","mm_max":"","mm_start":"","mm_end":"","site_type":""},{"id":"244","county":"Los Angeles","city":"Pomona","name":"Pomona Thomas Plaza  Downtown Pomona CFM on 2nd Street","location":"Thomas Plaza","address":"209","street":"W 2nd St","cross_st_1":"Thomas St","cross_st_2":"","zip":"91766","month_open":"Year Round","month_closed":"","days":"Saturday","frequency":"","hour_open":"17:00:00","hour_closed":"21:00:00","manager":"Larry Egan","phone":"9094691121","association_name":"","offers_ebt":"0","offers_market_match":"0","offers_WIC_FMNP":"0","offers_WIC_FVC":"0","website":"http://www.downtownpomona.org/events-calendar/farmers-market/","email":"","latitude":"34.0578021","longitude":"-117.7512424","mm_max":"","mm_start":"","mm_end":"","site_type":""},{"id":"245","county":"Los Angeles","city":"Sierra Madre","name":"Sierra Madre CFM","location":"","address":"222","street":"S Sierra Madre Blvd","cross_st_1":"","cross_st_2":"","zip":"91814","month_open":"Year Round","month_closed":"","days":"Wednesday","frequency":"","hour_open":"15:00:00","hour_closed":"20:00:00","manager":"Jason Bryant","phone":"8185918161","association_name":"","offers_ebt":"0","offers_market_match":"0","offers_WIC_FMNP":"1","offers_WIC_FVC":"0","website":"","email":"","latitude":"34.1619046","longitude":"-118.0477674","mm_max":"","mm_start":"","mm_end":"","site_type":""},{"id":"246","county":"Los Angeles","city":"W Covina","name":"West Covina Farmers' Market","location":"By the Lakes Entertainment Complex","address":"195","street":"Glendora Ave","cross_st_1":"Lakes Dr","cross_st_2":"","zip":"91790","month_open":"Year Round","month_closed":"","days":"Saturday","frequency":"","hour_open":"08:00:00","hour_closed":"13:00:00","manager":"Roger Evans","phone":"6264880054","association_name":"","offers_ebt":"0","offers_market_match":"0","offers_WIC_FMNP":"1","offers_WIC_FVC":"0","website":"http://westcovinafarmersmarket.org/","email":"","latitude":"34.071304","longitude":"-117.921604","mm_max":"","mm_start":"","mm_end":"","site_type":""},{"id":"247","county":"Los Angeles","city":"Walnut","name":"The Jack Newe's Farmers' Market","location":"Mt. San Antonio College Campus, Pkg Lot B","address":"1100","street":"N Grand Ave","cross_st_1":"","cross_st_2":"","zip":"91789","month_open":"Year Round","month_closed":"","days":"Saturday","frequency":"","hour_open":"08:00:00","hour_closed":"14:00:00","manager":"Rick Palas","phone":"9098690701","association_name":"","offers_ebt":"0","offers_market_match":"0","offers_WIC_FMNP":"0","offers_WIC_FVC":"0","website":"","email":"","latitude":"34.048324","longitude":"-117.842001","mm_max":"","mm_start":"","mm_end":"","site_type":""},{"id":"248","county":"Los Angeles","city":"Los Angeles","name":"Silver Lake CFM - Tuesday","location":"","address":"1500","street":"Griffith Park Blvd","cross_st_1":"Edgecliff","cross_st_2":"Sunset Blvd","zip":"90026","month_open":"Year Round","month_closed":"","days":"Tuesday","frequency":"","hour_open":"14:00:00","hour_closed":"19:30:00","manager":"Edwin Gomez","phone":"2134844002","association_name":"","offers_ebt":"1","offers_market_match":"0","offers_WIC_FMNP":"0","offers_WIC_FVC":"0","website":"","email":"","latitude":"34.0904111","longitude":"-118.2779481","mm_max":"","mm_start":"","mm_end":"","site_type":""},{"id":"249","county":"Los Angeles","city":"Los Angeles","name":"East Los Angeles Farmers' Market","location":"East Los Angeles Civic Center","address":"4801","street":"East 3rd St ","cross_st_1":"S La Verne Ave","cross_st_2":"S Mednik Ave","zip":"90022","month_open":"April","month_closed":"September","days":"Wednesday","frequency":"","hour_open":"09:00:00","hour_closed":"15:00:00","manager":"Lilia Rivas","phone":"3232634462","association_name":"","offers_ebt":"1","offers_market_match":"1","offers_WIC_FMNP":"1","offers_WIC_FVC":"1","website":"http://www.hungeractionla.org/marketmatch/","email":"","latitude":"34.034038","longitude":"-118.160586","mm_max":"","mm_start":"","mm_end":"","site_type":"","offers_f5":"1"},{"id":"250","county":"Los Angeles","city":"Marina Del Rey","name":"Marina del Rey CFM","location":"Lot #10","address":"","street":"Admiralty Way","cross_st_1":"Via Marina","cross_st_2":"","zip":"90292","month_open":"Year Round ","month_closed":"","days":"Thursday","frequency":"","hour_open":"09:00:00","hour_closed":"14:00:00","manager":"Paula Rodarte","phone":"3104550781","association_name":"","offers_ebt":"0","offers_market_match":"0","offers_WIC_FMNP":"0","offers_WIC_FVC":"0","website":"https://www.facebook.com/MDRFarmersMarket","email":"","latitude":"33.984613","longitude":"-118.431051","mm_max":"","mm_start":"","mm_end":"","site_type":""},{"id":"251","county":"Los Angeles","city":"Playa Vista","name":"Playa Vista CFM - Wed","location":"","address":"6400","street":"Seabluff Dr","cross_st_1":"","cross_st_2":"Discovery Creek","zip":"90094","month_open":"Year Round","month_closed":"","days":"Wednesday","frequency":"","hour_open":"16:00:00","hour_closed":"20:00:00","manager":"Mark Anderson","phone":"4246457211","association_name":"","offers_ebt":"0","offers_market_match":"0","offers_WIC_FMNP":"0","offers_WIC_FVC":"0","website":"http://www.playavistafm.com/","email":"","latitude":"33.972012","longitude":"-118.421888","mm_max":"","mm_start":"","mm_end":"","site_type":""},{"id":"252","county":"Los Angeles","city":"Santa Fe Springs","name":"Santa Fe Springs CFM","location":"Town Center Plaza","address":"11710","street":"E Telegraph Rd","cross_st_1":"Alburtis Ave","cross_st_2":"Pioneer Blvd","zip":"90670","month_open":"Year Round","month_closed":"","days":"Thursday","frequency":"","hour_open":"12:00:00","hour_closed":"17:00:00","manager":"Rick Palas/Jose Honescko","phone":"9096306302","association_name":"","offers_ebt":"1","offers_market_match":"0","offers_WIC_FMNP":"0","offers_WIC_FVC":"0","website":"https://www.facebook.com/pages/Santa-Fe-Springs-Certified-Farmers-Market/1424499931103202?sk=timeline","email":"rpalas@verizon.net","latitude":"33.945893","longitude":"-118.082774","mm_max":"","mm_start":"","mm_end":"","site_type":""},{"id":"253","county":"Los Angeles","city":"Cerritos","name":"Cerritos CFM","location":"North end of Performing Arts Center parking lot","address":"17870","street":"Park Plaza Dr","cross_st_1":"Park Plaza Dr","cross_st_2":"Towne Center Dr","zip":"90703","month_open":"Year Round","month_closed":"","days":"Saturday","frequency":"","hour_open":"08:00:00","hour_closed":"12:00:00","manager":"Dale C. Whitney","phone":"5623013202","association_name":"","offers_ebt":"1","offers_market_match":"0","offers_WIC_FMNP":"1","offers_WIC_FVC":"0","website":"http://www.goodveg.org/","email":"","latitude":"33.870196","longitude":"-118.062591","mm_max":"","mm_start":"","mm_end":"","site_type":""},{"id":"254","county":"Los Angeles","city":"Long Beach","name":"Growing Experience CFM","location":"","address":"750","street":"Via Carmelitos","cross_st_1":"N Via Veranada","cross_st_2":"","zip":"90805","month_open":"Year Round ","month_closed":"","days":"Saturday ","frequency":"","hour_open":"10:00:00","hour_closed":"13:00:00","manager":"","phone":"5629842917","association_name":"","offers_ebt":"0","offers_market_match":"0","offers_WIC_FMNP":"1","offers_WIC_FVC":"0","website":"http://www3.lacdc.org/CDCWebsite/TGE/Home.aspx?id=5686","email":"","latitude":"33.84802","longitude":"-118.182601","mm_max":"","mm_start":"","mm_end":"","site_type":""},{"id":"255","county":"Los Angeles","city":"Los Angeles","name":"3rd & Fairfax Farmers' Market","location":"","address":"","street":"","cross_st_1":"W 3rd St","cross_st_2":"S Fairfax Ave","zip":"90036","month_open":"Year Round","month_closed":"","days":"Tuesday, Wednesda, Thursday, Friday, Saturday, Sunday","frequency":"","hour_open":"10:00:00","hour_closed":"22:00:00","manager":"Michael Hilty","phone":"3239339211","association_name":"","offers_ebt":"0","offers_market_match":"0","offers_WIC_FMNP":"0","offers_WIC_FVC":"0","website":"http://www.farmersmarketla.com/","email":"","latitude":"34.071872","longitude":"-118.361565","mm_max":"","mm_start":"","mm_end":"","site_type":""},{"id":"256","county":"Los Angeles","city":"Marina Del Rey","name":"Del Rey CFM","location":"Glen Alla Park","address":"4601","street":"Alla Rd ","cross_st_1":"Glencoe Ave","cross_st_2":"Alla Rd","zip":"90292","month_open":"Year Round ","month_closed":"","days":"Friday","frequency":"","hour_open":"12:00:00","hour_closed":"19:00:00","manager":"Helen Lee","phone":"3232729177","association_name":"","offers_ebt":"0","offers_market_match":"0","offers_WIC_FMNP":"0","offers_WIC_FVC":"0","website":"","email":"helenlee101@live.com","latitude":"33.984613","longitude":"-118.431051","mm_max":"","mm_start":"","mm_end":"","site_type":""},{"id":"257","county":"Los Angeles","city":"Newhall","name":"Valencia Newhall Farmers' Market","location":"Old Town Newhall","address":"","street":"Main St","cross_st_1":"Market St","cross_st_2":"6th St","zip":"91321","month_open":"Year Round","month_closed":"","days":"Thursday","frequency":"","hour_open":"16:00:00","hour_closed":"20:00:00","manager":"Peggy Bull","phone":"8056436458","association_name":"","offers_ebt":"0","offers_market_match":"0","offers_WIC_FMNP":"1","offers_WIC_FVC":"0","website":"","email":"","latitude":"34.379228","longitude":"-118.527717","mm_max":"","mm_start":"","mm_end":"","site_type":""},{"id":"258","county":"Los Angeles","city":"Newhall","name":"Old Town Newhall Farmers' Market","location":"Vacant lot at corner of Lyons & Railroad Avenues","address":"22520","street":"Lyons Ave","cross_st_1":"Railroad Ave","cross_st_2":"","zip":"91321","month_open":"Year Round","month_closed":"","days":"Saturday","frequency":"","hour_open":"08:30:00","hour_closed":"12:30:00","manager":"Greta Dunlap","phone":"6617993693","association_name":"","offers_ebt":"1","offers_market_match":"1","offers_WIC_FMNP":"1","offers_WIC_FVC":"0","website":"oldtownnewhall.org","email":"oldtownnewhallfm@gmail.com","latitude":"34.381714","longitude":"-118.529348","mm_max":"10","mm_start":"Year-round","mm_end":"","site_type":""},{"id":"259","county":"Los Angeles","city":"Los Angeles","name":"Arts District CFM","location":"","address":"620","street":"Traction Ave","cross_st_1":"3rd St","cross_st_2":"Rose St","zip":"90013","month_open":"Year Round","month_closed":"","days":"Thursday","frequency":"","hour_open":"16:00:00","hour_closed":"20:00:00","manager":"Susan Hutchinson","phone":"3237104198","association_name":"","offers_ebt":"1","offers_market_match":"0","offers_WIC_FMNP":"0","offers_WIC_FVC":"0","website":"http://artsdistrictfarmersmarket.com/","email":"","latitude":"34.04616","longitude":"-118.236971","mm_max":"","mm_start":"","mm_end":"","site_type":""},{"id":"260","county":"Los Angeles","city":"Baldwin Park","name":"Kaiser Permanente Baldwin Park CFM","location":"Kaiser Permanente Baldwin Park Medical Center","address":"1101","street":"Baldwin Park Blvd","cross_st_1":"","cross_st_2":"Dalewood St","zip":"91706","month_open":"Year Round","month_closed":"","days":"Friday","frequency":"Weekly","hour_open":"08:30:00","hour_closed":"13:30:00","manager":"Deborah Brister","phone":"3104550181","association_name":"","offers_ebt":"0","offers_market_match":"1","offers_WIC_FMNP":"1","offers_WIC_FVC":"0","website":"","email":"","latitude":"34.0653232","longitude":"-117.9857612","mm_max":"","mm_start":"","mm_end":"","site_type":""},{"id":"261","county":"Los Angeles","city":"Los Angeles","name":"Loyola Marymount University Farmers' Market","location":"Alumni Mall at Loyola Marymont University","address":"1","street":"LMU Dr","cross_st_1":"","cross_st_2":"","zip":"90045","month_open":"September","month_closed":"May","days":"1st day of the month","frequency":"","hour_open":"08:00:00","hour_closed":"14:00:00","manager":"Alexandra Froelich","phone":"3103385994","association_name":"","offers_ebt":"0","offers_market_match":"0","offers_WIC_FMNP":"0","offers_WIC_FVC":"0","website":"","email":"","latitude":"33.9666085","longitude":"-118.4234713","mm_max":"","mm_start":"","mm_end":"","site_type":""},{"id":"262","county":"Los Angeles","city":"Avalon","name":"Moana's Market","location":"","address":"205","street":"Metropole Ave","cross_st_1":"Beacon St","cross_st_2":"Tremont St","zip":"90704","month_open":"Year Round","month_closed":"","days":"Wednesday","frequency":"","hour_open":"08:00:00","hour_closed":"14:30:00","manager":"Sana Hernandez","phone":"3109683471","association_name":"","offers_ebt":"0","offers_market_match":"0","offers_WIC_FMNP":"0","offers_WIC_FVC":"0","website":"","email":"","latitude":"33.342326","longitude":"-118.328765","mm_max":"","mm_start":"","mm_end":"","site_type":""},{"id":"263","county":"Los Angeles","city":"Pasadena","name":"Kaiser Pasadena Farmers' Market","location":"","address":"393","street":"E. Walnut St","cross_st_1":"","cross_st_2":"","zip":"91188","month_open":"Year Round","month_closed":"","days":"Wednesday","frequency":"Bi-Monthly","hour_open":"08:00:00","hour_closed":"13:00:00","manager":"Dawn Taccone","phone":"9098694906","association_name":"","offers_ebt":"0","offers_market_match":"0","offers_WIC_FMNP":"0","offers_WIC_FVC":"0","website":"","email":"","latitude":"34.1504","longitude":"-118.142228","mm_max":"","mm_start":"","mm_end":"","site_type":""},{"id":"264","county":"Los Angeles","city":"San Dimas","name":"San Dimas Farmers' Market","location":"Civic Center (San Dimas City Hall)","address":"245","street":"E. Bonita Ave","cross_st_1":"Walnut","cross_st_2":"Iglesia","zip":"91773","month_open":"April","month_closed":"September","days":"Wednesday","frequency":"","hour_open":"16:00:00","hour_closed":"21:00:00","manager":"Celena Harrigton","phone":"9095814744","association_name":"","offers_ebt":"1","offers_market_match":"0","offers_WIC_FMNP":"1","offers_WIC_FVC":"0","website":"http://www.sandimasfarmersmarket.com/","email":"","latitude":"34.1071325","longitude":"-117.8035778","mm_max":"","mm_start":"","mm_end":"","site_type":""},{"id":"265","county":"Los Angeles","city":"Topanga","name":"Topanga Canyon CFM","location":"","address":"1440","street":"North Topanga Canyon Blvd","cross_st_1":"Old Topanga Canyon Rd","cross_st_2":"","zip":"90290","month_open":"Year Round","month_closed":"","days":"Friday","frequency":"","hour_open":"09:00:00","hour_closed":"13:00:00","manager":"Kelly Rockwell","phone":"3104550181","association_name":"","offers_ebt":"1","offers_market_match":"0","offers_WIC_FMNP":"0","offers_WIC_FVC":"0","website":"https://www.facebook.com/TopangaFarmersMarket","email":"","latitude":"34.0900712","longitude":"-118.6038852","mm_max":"","mm_start":"","mm_end":"","site_type":""},{"id":"266","county":"Los Angeles","city":"Alhambra","name":"Alhambra CFM","location":"","address":"100","street":"South Bay State St","cross_st_1":"Monterey St","cross_st_2":"Bay State St","zip":"91801","month_open":"Year Round","month_closed":"","days":"Sunday (Closed Easter)","frequency":"","hour_open":"08:30:00","hour_closed":"13:00:00","manager":"Harry Wong","phone":"6265705081","association_name":"","offers_ebt":"1","offers_market_match":"0","offers_WIC_FMNP":"1","offers_WIC_FVC":"0","website":"http://www.cityofalhambra.org/page/289/certified_farmers_market/","email":"hwong@yahoo.com","latitude":"34.093641","longitude":"-118.1242819","mm_max":"","mm_start":"","mm_end":"","site_type":""},{"id":"267","county":"Los Angeles","city":"Bellflower","name":"Bellflower CFM","location":"Simms Park ","address":"16614","street":"S Clark St","cross_st_1":"Laurel St","cross_st_2":"Oak St","zip":"90706","month_open":"Year Round","month_closed":"","days":"Monday","frequency":"","hour_open":"09:00:00","hour_closed":"13:00:00","manager":"Cindy Van Meeveren","phone":"5629259003","association_name":"","offers_ebt":"0","offers_market_match":"0","offers_WIC_FMNP":"1","offers_WIC_FVC":"0","website":"http://www.bellflower.org/depts/parks/market.asp","email":"","latitude":"33.883729","longitude":"-118.133846","mm_max":"","mm_start":"","mm_end":"","site_type":""},{"id":"268","county":"Los Angeles","city":"Burbank","name":"Burbank CFM","location":"City Hall Parking Lot","address":"150","street":"N 3rd St. 1 E","cross_st_1":"3rd St ","cross_st_2":"Orange Grove Ave","zip":"91502","month_open":"Year Round","month_closed":"","days":"Saturday","frequency":"","hour_open":"08:00:00","hour_closed":"12:30:00","manager":"Dennise De Leo","phone":"8188474774","association_name":"","offers_ebt":"1","offers_market_match":"0","offers_WIC_FMNP":"1","offers_WIC_FVC":"0","website":"","email":"","latitude":"34.182938","longitude":"-118.308596","mm_max":"","mm_start":"","mm_end":"","site_type":""},{"id":"269","county":"Los Angeles","city":"Culver City","name":"The Culver City Farmers' Market","location":"","address":"3800","street":"Main St","cross_st_1":"Culver Blvd","cross_st_2":"Venice Blvd","zip":"90232","month_open":"Year Round","month_closed":"","days":"Tuesday","frequency":"","hour_open":"14:00:00","hour_closed":"19:00:00","manager":"Stephen Whipple","phone":"3104302919","association_name":"","offers_ebt":"0","offers_market_match":"0","offers_WIC_FMNP":"0","offers_WIC_FVC":"0","website":"http://www.culvercity.org/Business/AboutEconDev/FarmersMarket.aspx","email":"","latitude":"34.0247221","longitude":"-118.3941604","mm_max":"","mm_start":"","mm_end":"","site_type":""},{"id":"270","county":"Los Angeles","city":"Long Beach","name":"Long Beach Uptown CFM","location":"East side of Atlantic Ave. at 46th street, just south of Del Amo","address":"610","street":"E 46th St ","cross_st_1":"Atlantic Ave","cross_st_2":"","zip":"90807","month_open":"Year Round","month_closed":"","days":"Thursday","frequency":"","hour_open":"15:00:00","hour_closed":"18:30:00","manager":"Dale Whitney","phone":"5629831665","association_name":"","offers_ebt":"1","offers_market_match":"0","offers_WIC_FMNP":"1","offers_WIC_FVC":"0","website":"http://www.goodveg.org/","email":"","latitude":"33.8426426","longitude":"-118.1844498","mm_max":"","mm_start":"","mm_end":"","site_type":""},{"id":"271","county":"Los Angeles","city":"Long Beach","name":"Long Beach Southeast CFM","location":"Alamitos Bay Marina (S of 2nd St)","address":"6530","street":"E Marina Dr","cross_st_1":"","cross_st_2":"","zip":"90803","month_open":"Year Round","month_closed":"","days":"Sunday","frequency":"","hour_open":"09:00:00","hour_closed":"14:00:00","manager":"Dale Whitney","phone":"5623013202","association_name":"","offers_ebt":"1","offers_market_match":"0","offers_WIC_FMNP":"1","offers_WIC_FVC":"0","website":"http://www.goodveg.org/","email":"","latitude":"33.7530973","longitude":"-118.1084168","mm_max":"","mm_start":"","mm_end":"","site_type":""},{"id":"272","county":"Los Angeles","city":"Monrovia","name":"Monrovia Farmers Market - Friday","location":"","address":"","street":"Olive Ave","cross_st_1":"Myrtle Ave","cross_st_2":"","zip":"91016","month_open":"Year Round","month_closed":"","days":"Friday","frequency":"","hour_open":"17:00:00","hour_closed":"21:00:00","manager":"Jerry Diaz and David Gayman","phone":"6263577442","association_name":"","offers_ebt":"0","offers_market_match":"0","offers_WIC_FMNP":"1","offers_WIC_FVC":"0","website":"","email":"David@familyfestivalproductions.net; patty@familyfestivalproductions.net","latitude":"34.1442616","longitude":"-118.0019482","mm_max":"","mm_start":"","mm_end":"","site_type":""},{"id":"273","county":"Los Angeles","city":"Norwalk","name":"Norwalk CFM","location":"Alondra Blvd, West of Pioneer Blvd","address":"11700","street":"Alondra Blvd ","cross_st_1":"","cross_st_2":"","zip":"90650","month_open":"Year Round","month_closed":"","days":"Tuesday","frequency":"","hour_open":"09:00:00","hour_closed":"13:00:00","manager":"(Leonard) Butch Redman","phone":"5629444669","association_name":"","offers_ebt":"1","offers_market_match":"0","offers_WIC_FMNP":"0","offers_WIC_FVC":"0","website":"","email":"","latitude":"33.8875463","longitude":"-118.0846252","mm_max":"","mm_start":"","mm_end":"","site_type":""},{"id":"274","county":"Los Angeles","city":"Redondo Beach","name":"Redondo Beach CFM","location":"In front of Veteran's Park","address":"309","street":"Esplanade ","cross_st_1":"Torrance Blvd","cross_st_2":"George Freeth Way","zip":"90277","month_open":"Year Round","month_closed":"","days":"Thursday","frequency":"","hour_open":"08:00:00","hour_closed":"13:00:00","manager":"Nancy Jones","phone":"3103180610","association_name":"","offers_ebt":"0","offers_market_match":"0","offers_WIC_FMNP":"0","offers_WIC_FVC":"0","website":"http://www.redondo.org/depts/recreation/facilities/farmers_market.asp","email":"","latitude":"33.8376063","longitude":"-118.389754","mm_max":"","mm_start":"","mm_end":"","site_type":""},{"id":"275","county":"Los Angeles","city":"Beverly Hills","name":"Beverly Hills Farmers' Market","location":"","address":"9300","street":"Civic Center Dr","cross_st_1":"W 3rd St","cross_st_2":"","zip":"90210","month_open":"Year Round","month_closed":"","days":"Sunday","frequency":"","hour_open":"09:00:00","hour_closed":"13:00:00","manager":"Greta Dunlap","phone":"3102856830","association_name":"","offers_ebt":"1","offers_market_match":"0","offers_WIC_FMNP":"1","offers_WIC_FVC":"0","website":"http://www.beverlyhills.org/exploring/farmersmarket/","email":"","latitude":"34.073884","longitude":"-118.399138","mm_max":"","mm_start":"","mm_end":"","site_type":""},{"id":"276","county":"Los Angeles","city":"Hermosa Beach","name":"Hermosa Beach CFM","location":"","address":"","street":"Valley Dr","cross_st_1":"10th St","cross_st_2":"8th St","zip":"90254","month_open":"Year Round","month_closed":"","days":"Friday","frequency":"","hour_open":"12:00:00","hour_closed":"16:00:00","manager":"Maureen Hunt","phone":"3103760951","association_name":"","offers_ebt":"0","offers_market_match":"0","offers_WIC_FMNP":"0","offers_WIC_FVC":"0","website":"","email":"","latitude":"33.885152","longitude":"-118.407086","mm_max":"","mm_start":"","mm_end":"","site_type":""},{"id":"277","county":"Los Angeles","city":"Los Angeles","name":"Larchmont Village CFM","location":"Larchmont Lot #694","address":"209","street":"N Larchmont Blvd","cross_st_1":"Beverly Blvd","cross_st_2":"W 1st St","zip":"90004","month_open":"Year Round","month_closed":"","days":"Sunday","frequency":"","hour_open":"10:00:00","hour_closed":"14:00:00","manager":"Jennifer Cohen","phone":"8185918161","association_name":"","offers_ebt":"0","offers_market_match":"0","offers_WIC_FMNP":"1","offers_WIC_FVC":"0","website":"http://larchmontla.com/News/Events/larchmont-village-farmers-market.html","email":"","latitude":"34.075182","longitude":"-118.323937","mm_max":"","mm_start":"","mm_end":"","site_type":""},{"id":"278","county":"Los Angeles","city":"Palos Verdes","name":"Palos Verdes Farmers' Market","location":"","address":"44B","street":"Peninsula Ctr","cross_st_1":"Hawthorne","cross_st_2":"Silver Spur","zip":"90274","month_open":"Year Round","month_closed":"","days":"Sunday","frequency":"","hour_open":"09:00:00","hour_closed":"13:00:00","manager":"Brian Weiss/Carri Zotti","phone":"3105034421","association_name":"","offers_ebt":"0","offers_market_match":"0","offers_WIC_FMNP":"0","offers_WIC_FVC":"0","website":"http://www.palosverdeschamber.com/Site/FarmersMarket.aspx","email":"","latitude":"33.770272","longitude":"-118.370257","mm_max":"","mm_start":"","mm_end":"","site_type":""},{"id":"279","county":"Los Angeles","city":"Venice","name":"Venice Farmers Market","location":"","address":"","street":"","cross_st_1":"Venice Blvd","cross_st_2":"Venice Way","zip":"90291","month_open":"Year Round","month_closed":"","days":"Friday","frequency":"","hour_open":"07:00:00","hour_closed":"11:00:00","manager":"James Murez","phone":"3103996690","association_name":"","offers_ebt":"0","offers_market_match":"0","offers_WIC_FMNP":"0","offers_WIC_FVC":"0","website":"http://www.venicefarmersmarket.com/","email":"","latitude":"33.9872989","longitude":"-118.4663141","mm_max":"","mm_start":"","mm_end":"","site_type":""},{"id":"280","county":"Los Angeles","city":"West Hollywood","name":"Helen Albert West Hollywood Farmers' Market","location":"","address":"1200","street":"N Vista St","cross_st_1":"Fountain Ave","cross_st_2":"","zip":"90046","month_open":"Year Round","month_closed":"","days":"Monday","frequency":"","hour_open":"09:00:00","hour_closed":"14:00:00","manager":"Chris Worland","phone":"3238486511","association_name":"","offers_ebt":"0","offers_market_match":"0","offers_WIC_FMNP":"0","offers_WIC_FVC":"0","website":"http://www.weho.org/residents/recreation-services/helen-albert-certified-farmers-market","email":"cworland@weho.org","latitude":"34.093713","longitude":"-118.351223","mm_max":"","mm_start":"","mm_end":"","site_type":""},{"id":"281","county":"Los Angeles","city":"Whittier","name":"Uptown Whittier Farmers' Market","location":"Southwest corner of Philadelphia and Bright","address":"13018","street":"Philadelphia St","cross_st_1":"Bright","cross_st_2":"","zip":"90601","month_open":"Year Round","month_closed":"","days":"Friday","frequency":"","hour_open":"08:00:00","hour_closed":"13:00:00","manager":"NRD Productions","phone":"5626962662","association_name":"","offers_ebt":"1","offers_market_match":"0","offers_WIC_FMNP":"1","offers_WIC_FVC":"0","website":"http://whittieruptown.org/wua/?page_id=71","email":"","latitude":"33.9787673","longitude":"-118.0364794","mm_max":"","mm_start":"","mm_end":"","site_type":""},{"id":"282","county":"Los Angeles","city":"Brentwood","name":"Brentwood CFM - Sunday","location":"","address":"741","street":"Gretna Green Way ","cross_st_1":"San Vincente Blvd","cross_st_2":"Montana Ave","zip":"90049","month_open":"Year Round","month_closed":"","days":"Sunday","frequency":"","hour_open":"09:00:00","hour_closed":"14:00:00","manager":"Jackson Spears/Joseph Toledo","phone":"8185918161","association_name":"","offers_ebt":"0","offers_market_match":"0","offers_WIC_FMNP":"1","offers_WIC_FVC":"0","website":"https://www.facebook.com/Brentwoodfm","email":"","latitude":"34.050895","longitude":"-118.475099","mm_max":"","mm_start":"","mm_end":"","site_type":""},{"id":"283","county":"Los Angeles","city":"Covina","name":"Covina Certified Farmers' Market","location":"Heritage Park (formerly Civic Center Park)","address":"","street":"Citrus Ave","cross_st_1":"San Bernadino Rd","cross_st_2":"","zip":"91722","month_open":"April","month_closed":"December","days":"Friday","frequency":"","hour_open":"17:00:00","hour_closed":"21:00:00","manager":"Harry Brown-Hiegel","phone":"6263845340","association_name":"","offers_ebt":"0","offers_market_match":"0","offers_WIC_FMNP":"1","offers_WIC_FVC":"0","website":"http://www.covinafarmersmarket.com/","email":"","latitude":"34.0892854","longitude":"-117.8858389","mm_max":"","mm_start":"","mm_end":"","site_type":""},{"id":"284","county":"Los Angeles","city":"El Segundo","name":"El Segundo Certified Farmers' Market","location":"","address":"Main St/Grand","street":"Main St","cross_st_1":"Holly Ave","cross_st_2":"Pine Ave","zip":"90245","month_open":"Year Round","month_closed":"","days":"Thursday","frequency":"","hour_open":"15:00:00","hour_closed":"19:00:00","manager":"Shaunna Donahue","phone":"3106152645","association_name":"","offers_ebt":"0","offers_market_match":"0","offers_WIC_FMNP":"1","offers_WIC_FVC":"0","website":"http://www.elsegundo.org/depts/recreation/farmers_market.asp","email":"","latitude":"33.920918","longitude":"-118.415945","mm_max":"","mm_start":"","mm_end":"","site_type":""},{"id":"285","county":"Los Angeles","city":"Lawndale","name":"Lawndale CFM","location":"Library lawn","address":"14717","street":"Burin Ave","cross_st_1":"W 147th St","cross_st_2":"W 145th St","zip":"90260","month_open":"Year Round","month_closed":"","days":"Wednesday","frequency":"","hour_open":"14:00:00","hour_closed":"19:00:00","manager":"Dyan Davis","phone":"3106793306","association_name":"","offers_ebt":"0","offers_market_match":"0","offers_WIC_FMNP":"0","offers_WIC_FVC":"0","website":"","email":"","latitude":"33.898755","longitude":"-118.353847","mm_max":"","mm_start":"","mm_end":"","site_type":""},{"id":"286","county":"Los Angeles","city":"Los Angeles","name":"La Cienega Farmers' Market","location":"","address":"1801","street":"S La Cienega Blvd","cross_st_1":"South La Cienega Blvd","cross_st_2":"18th St","zip":"90035","month_open":"Year Round","month_closed":"","days":"Thursday","frequency":"","hour_open":"14:00:00","hour_closed":"19:00:00","manager":"Cynthia Ojeda","phone":"4242872280","association_name":"","offers_ebt":"1","offers_market_match":"1","offers_WIC_FMNP":"1","offers_WIC_FVC":"1","website":"www.lacienegafarmersmarket.com","email":"mnpfarmersmarkets@att.net","latitude":"34.044294","longitude":"-118.377539","mm_max":"","mm_start":"","mm_end":"","site_type":"","offers_f5":"1"},{"id":"287","county":"Los Angeles","city":"Los Angeles","name":"L.A. City Hall CFM (Little Tokyo CFM)","location":"L.A. City Hall/South Plaza","address":"200","street":"N Main St","cross_st_1":"W 1st St","cross_st_2":"W Temple St","zip":"90012","month_open":"Year Round","month_closed":"","days":"Thursday","frequency":"","hour_open":"10:00:00","hour_closed":"14:00:00","manager":"Susan Hutchinson","phone":"3237104198","association_name":"","offers_ebt":"1","offers_market_match":"0","offers_WIC_FMNP":"0","offers_WIC_FVC":"0","website":"http://www.downtownla.com/0_01_eventDetail.asp?EventID=722","email":"","latitude":"34.053133","longitude":"-118.242752","mm_max":"","mm_start":"","mm_end":"","site_type":""},{"id":"288","county":"Los Angeles","city":"Montrose","name":"Montrose Harvest Market","location":"Montrose","address":"2200","street":"Honolulu Ave","cross_st_1":"Ocean ","cross_st_2":"","zip":"91021","month_open":"Year Round","month_closed":"","days":"Sunday","frequency":"","hour_open":"09:00:00","hour_closed":"16:00:00","manager":"Mark Sheirdan","phone":"8186462880","association_name":"","offers_ebt":"0","offers_market_match":"0","offers_WIC_FMNP":"0","offers_WIC_FVC":"0","website":"","email":"","latitude":"34.2049297","longitude":"-118.2256037","mm_max":"","mm_start":"","mm_end":"","site_type":""},{"id":"289","county":"Los Angeles","city":"Baldwin Park","name":"Kaiser Permanente Baldwin Park CFM","location":"Kaiser Permanente Baldwin Park Medical Center","address":"1101","street":"Baldwin Park Blvd","cross_st_1":"","cross_st_2":"Dalewood St","zip":"91706","month_open":"Year Round","month_closed":"","days":"Sunday","frequency":"Weekly","hour_open":"09:00:00","hour_closed":"14:00:00","manager":"Susan Hua","phone":"3104550181","association_name":"","offers_ebt":"0","offers_market_match":"1","offers_WIC_FMNP":"1","offers_WIC_FVC":"0","website":"","email":"","latitude":"34.0653232","longitude":"-117.9857612","mm_max":"","mm_start":"","mm_end":"","site_type":""},{"id":"290","county":"Los Angeles","city":"Culver City","name":"Culver South CFM","location":"","address":"","street":"","cross_st_1":"Slauson Ave","cross_st_2":"Hannum","zip":"90230","month_open":"Year Round","month_closed":"","days":"Saturday","frequency":"","hour_open":"07:30:00","hour_closed":"11:30:00","manager":"Steve Fisher","phone":"3232820258","association_name":"","offers_ebt":"0","offers_market_match":"0","offers_WIC_FMNP":"0","offers_WIC_FVC":"0","website":"","email":"","latitude":"33.988806","longitude":"-118.391807","mm_max":"","mm_start":"","mm_end":"","site_type":""},{"id":"291","county":"Los Angeles","city":"Downey","name":"Kaiser Downey Farmers' Market","location":"","address":"9353","street":"E Imperial Hwy","cross_st_1":"Bellflower Blvd","cross_st_2":"Columbia Way","zip":"90242","month_open":"Year Round","month_closed":"","days":"Friday","frequency":"Bi-Monthly","hour_open":"07:30:00","hour_closed":"13:00:00","manager":"Dawn Taccone","phone":"9098694906","association_name":"","offers_ebt":"0","offers_market_match":"0","offers_WIC_FMNP":"1","offers_WIC_FVC":"0","website":"","email":"","latitude":"33.918519","longitude":"-118.128355","mm_max":"","mm_start":"","mm_end":"","site_type":""},{"id":"292","county":"Los Angeles","city":"Long Beach","name":"Green Acres","location":"","address":"5000","street":"E Spring St","cross_st_1":"Clark Ave","cross_st_2":"","zip":"90815","month_open":"Year Round","month_closed":"","days":"Sunday","frequency":"","hour_open":"08:30:00","hour_closed":"14:30:00","manager":"Richard Espinova","phone":"3234979956","association_name":"","offers_ebt":"0","offers_market_match":"0","offers_WIC_FMNP":"0","offers_WIC_FVC":"0","website":"","email":"","latitude":"33.810244","longitude":"-118.135357","mm_max":"","mm_start":"","mm_end":"","site_type":""},{"id":"293","county":"Los Angeles","city":"Los Angeles","name":"Historic Downtown Farmers' Market","location":"","address":"220","street":"W 5th St","cross_st_1":"S Spring St","cross_st_2":"S Broadway","zip":"90013","month_open":"Year Round","month_closed":"","days":"Sunday","frequency":"","hour_open":"09:00:00","hour_closed":"14:00:00","manager":"Ian Gabriel","phone":"3104550181","association_name":"","offers_ebt":"1","offers_market_match":"0","offers_WIC_FMNP":"0","offers_WIC_FVC":"0","website":"","email":"","latitude":"34.047097","longitude":"-118.25064","mm_max":"","mm_start":"","mm_end":"","site_type":""},{"id":"294","county":"Los Angeles","city":"Redondo Beach","name":"Rivera Village CFM","location":"","address":"","street":"Ave I","cross_st_1":"Camino de Estrella","cross_st_2":"So. Catalina Ave","zip":"90277","month_open":"Year Round","month_closed":"","days":"Friday","frequency":"","hour_open":"15:00:00","hour_closed":"19:00:00","manager":"Lee Ostendorf","phone":"5624499299","association_name":"","offers_ebt":"0","offers_market_match":"0","offers_WIC_FMNP":"0","offers_WIC_FVC":"0","website":"","email":"","latitude":"33.8287939","longitude":"-118.3890076","mm_max":"","mm_start":"","mm_end":"","site_type":""},{"id":"295","county":"Los Angeles","city":"South Gate","name":"South Gate","location":"South Gate City Park parking lot","address":"4855","street":"Tweedy Blvd","cross_st_1":"","cross_st_2":"","zip":"90280","month_open":"Year Round","month_closed":"","days":"Monday","frequency":"","hour_open":"10:00:00","hour_closed":"15:00:00","manager":"Mary Strang","phone":"5622301320","association_name":"","offers_ebt":"1","offers_market_match":"0","offers_WIC_FMNP":"1","offers_WIC_FVC":"0","website":"http://www.goodveg.org/","email":"","latitude":"33.939811","longitude":"-118.1764993","mm_max":"","mm_start":"","mm_end":"","site_type":""},{"id":"296","county":"Los Angeles","city":"Agoura Hills","name":"Agoura Hills CFM","location":"Agoura Hills City Mall","address":"5835","street":"Kenan Rd","cross_st_1":"","cross_st_2":"","zip":"91301","month_open":"Year Round","month_closed":"","days":"Sunday","frequency":"","hour_open":"09:00:00","hour_closed":"14:00:00","manager":"Dennis Horton","phone":"8185918161","association_name":"","offers_ebt":"0","offers_market_match":"0","offers_WIC_FMNP":"1","offers_WIC_FVC":"0","website":"","email":"","latitude":"34.157177","longitude":"-118.757237","mm_max":"","mm_start":"","mm_end":"","site_type":""},{"id":"297","county":"Los Angeles","city":"Westwood","name":"Westwood Village Farmers' Market","location":"","address":"1080","street":"Broxton Ave","cross_st_1":"Weyburn ","cross_st_2":"Kennos","zip":"90024","month_open":"Year Round","month_closed":"","days":"Thursday","frequency":"","hour_open":"12:00:00","hour_closed":"18:00:00","manager":"Steve Whipple","phone":"3104302919","association_name":"","offers_ebt":"0","offers_market_match":"0","offers_WIC_FMNP":"0","offers_WIC_FVC":"0","website":"","email":"","latitude":"34.0615208","longitude":"-118.4462417","mm_max":"","mm_start":"","mm_end":"","site_type":""},{"id":"298","county":"Los Angeles","city":"Agoura Hills","name":"Whizins Agoura Hills CFM","location":"","address":"5835","street":"Kanan Rd","cross_st_1":"","cross_st_2":"","zip":"91301","month_open":"Year Round","month_closed":"","days":"Sunday","frequency":"","hour_open":"Invalid","hour_closed":"Invalid","manager":"Melissa Farwell","phone":"8185918161","association_name":"","offers_ebt":"0","offers_market_match":"0","offers_WIC_FMNP":"0","offers_WIC_FVC":"0","website":"","email":"","latitude":"34.1446167","longitude":"-118.754685","mm_max":"","mm_start":"","mm_end":"","site_type":""}